{"version": 0.6, "generator": "Overpass API 0.7.58.5 b0c4acbb", "osm3s": {"timestamp_osm_base": "2022-08-22T10:56:22Z", "copyright": "The data included in this document is from www.openstreetmap.org. The data is made available under ODbL."}, "elements": [{"type": "node", "id": 27717687, "lat": 40.4164064, "lon": -3.7049818, "tags": {"amenity": "fast_food", "brand": "McDonald's", "brand:wikidata": "Q38076", "brand:wikipedia": "es:McDonald's", "cuisine": "burger", "internet_access": "wlan", "name": "McDonald's", "operator": "McDonald's", "source": "survey", "takeaway": "yes"}}, {"type": "node", "id": 27728064, "lat": 40.4162327, "lon": -3.7088498, "tags": {"addr:city": "Madrid", "addr:housenumber": "3", "addr:postcode": "28013", "addr:street": "Plaza del Comandante Las Morenas", "amenity": "restaurant", "contact:website": "http://www.brasaylena.com/#", "name": "Brasa y Le\u00f1a", "old_name": "Colonia del Sacramento", "old_name_1": "Por Una Cabeza"}}, {"type": "node", "id": 27792111, "lat": 40.413636, "lon": -3.7087291, "tags": {"amenity": "restaurant", "brand": "100 Montaditos", "brand:wikidata": "Q8355805", "cuisine": "sandwich", "name": "100 Montaditos"}}, {"type": "node", "id": 48753285, "lat": 40.4170948, "lon": -3.704137}, {"type": "node", "id": 48753288, "lat": 40.4169462, "lon": -3.7043962}, {"type": "node", "id": 178820973, "lat": 40.4156874, "lon": -3.7092708, "tags": {"amenity": "ice_cream"}}, {"type": "node", "id": 178820979, "lat": 40.41575, "lon": -3.7091974, "tags": {"addr:country": "ES", "name": "SuperSano", "shop": "convenience"}}, {"type": "node", "id": 178821046, "lat": 40.416073, "lon": -3.7085285, "tags": {"addr:city": "Madrid", "addr:housenumber": "42", "addr:postcode": "28013", "addr:street": "Calle Mayor", "amenity": "bar", "name": "Velicia"}}, {"type": "node", "id": 178821166, "lat": 40.4167707, "lon": -3.706803, "tags": {"addr:city": "Madrid", "addr:country": "ES", "addr:housenumber": "5", "addr:postcode": "28013", "addr:street": "Pasadizo de San Gin\u00e9s", "amenity": "cafe", "cuisine": "coffee_shop", "entrance": "main", "name": "Chocolater\u00eda San Gin\u00e9s", "opening_hours": "Mo-Su 08:00-23:30", "phone": "+34913656546", "website": "https://chocolateriasangines.com/", "wheelchair": "limited", "wikidata": "Q5103675", "wikipedia": "es:Chocolater\u00eda San Gin\u00e9s"}}, {"type": "node", "id": 178821190, "lat": 40.4166338, "lon": -3.7069412, "tags": {"addr:city": "Madrid", "addr:housenumber": "4", "addr:postcode": "28013", "addr:street": "Calle de Coloreros", "amenity": "pub", "contact:facebook": "https://www.facebook.com/pages/Bar-yambala/101305056584587?sk=info&tab=overview", "contact:phone": "+34 619846449", "name": "Yambala"}}, {"type": "node", "id": 178821207, "lat": 40.4161161, "lon": -3.7075072, "tags": {"amenity": "restaurant", "name": "Grazie Mille"}}, {"type": "node", "id": 178821228, "lat": 40.4160273, "lon": -3.7050598, "tags": {"addr:city": "Madrid", "addr:housenumber": "3", "addr:postcode": "28012", "addr:street": "Calle de Esparteros", "amenity": "fast_food", "brand": "Burger King", "brand:wikidata": "Q177054", "brand:wikipedia": "es:Burger King", "cuisine": "burger", "name": "Burger King", "source": "survey", "takeaway": "yes", "wheelchair": "no"}}, {"type": "node", "id": 178821235, "lat": 40.4164854, "lon": -3.704493, "tags": {"alt_name": "Kentucky Fried Chicken", "amenity": "fast_food", "brand": "KFC", "brand:wikidata": "Q524757", "brand:wikipedia": "en:KFC", "cuisine": "chicken", "name": "KFC", "source": "survey", "takeaway": "yes", "wheelchair": "limited"}}, {"type": "node", "id": 183916162, "lat": 40.4177493, "lon": -3.7089054, "tags": {"addr:city": "Madrid", "addr:housenumber": "23", "addr:postcode": "28013", "addr:street": "Calle Arenal", "amenity": "fast_food", "cuisine": "pizza", "name": "opera:pizza"}}, {"type": "node", "id": 183916175, "lat": 40.4177572, "lon": -3.7092982, "tags": {"shop": "convenience"}}, {"type": "node", "id": 184049038, "lat": 40.4180474, "lon": -3.7087248, "tags": {"shop": "convenience"}}, {"type": "node", "id": 184049059, "lat": 40.4187591, "lon": -3.7088475, "tags": {"shop": "convenience"}}, {"type": "node", "id": 184049060, "lat": 40.4186369, "lon": -3.7090308, "tags": {"addr:city": "Madrid", "addr:housenumber": "3", "addr:postcode": "28013", "addr:street": "Calle de Ca\u00f1os del Peral", "amenity": "restaurant", "contact:phone": "+34 915 420 644", "cuisine": "mexican", "name": "Entre suspiro y suspiro", "source": "survey", "website": "http://www.entresuspiroysuspiro.com/"}}, {"type": "node", "id": 184049103, "lat": 40.4185506, "lon": -3.7089327, "tags": {"addr:city": "Madrid", "addr:housenumber": "2", "addr:postcode": "28013", "addr:street": "Calle de Ca\u00f1os del Peral", "amenity": "restaurant", "contact:phone": "+34 918 313 489", "contact:website": "http://www.grupandilana.com/opera-victoria/", "name": "\u00d3pera Victoria", "old_name": "La Vaca Argentina"}}, {"type": "node", "id": 184049106, "lat": 40.4188918, "lon": -3.7086559, "tags": {"addr:city": "Madrid", "addr:housenumber": "7", "addr:postcode": "28013", "addr:street": "Calle de Ca\u00f1os del Peral", "amenity": "bar", "name": "Discoteca Olimpia"}}, {"type": "node", "id": 184049146, "lat": 40.4196027, "lon": -3.7077218, "tags": {"addr:city": "Madrid", "addr:housenumber": "9", "addr:postcode": "28013", "addr:street": "Calle de las Veneras", "amenity": "restaurant", "cuisine": "chinese", "name": "Wok King"}}, {"type": "node", "id": 184049154, "lat": 40.4196933, "lon": -3.7080629, "tags": {"name": "Alimentaci\u00f3n", "shop": "convenience"}}, {"type": "node", "id": 184049155, "lat": 40.4191441, "lon": -3.7080701, "tags": {"name": "Fruter\u00eda", "shop": "greengrocer"}}, {"type": "node", "id": 184049159, "lat": 40.4186643, "lon": -3.7082433, "tags": {"addr:city": "Madrid", "addr:housenumber": "8", "addr:postcode": "28013", "addr:street": "Costanilla de los \u00c1ngeles", "amenity": "restaurant", "name": "Taberna de los \u00c1ngeles"}}, {"type": "node", "id": 184049171, "lat": 40.4196449, "lon": -3.7070086, "tags": {"addr:city": "Madrid", "addr:housenumber": "33", "addr:postcode": "28013", "addr:street": "Calle Preciados", "amenity": "restaurant", "cuisine": "regional", "name": "Lizarran", "phone": "+34 917 010 812", "website": "https://www.lizarran.es/", "wheelchair": "limited"}}, {"type": "node", "id": 184049176, "lat": 40.4192413, "lon": -3.7074836, "tags": {"addr:city": "Madrid", "addr:postcode": "28013", "addr:street": "Calle de las Veneras", "amenity": "pub", "name": "Cervercer\u00eda Erte"}}, {"type": "node", "id": 184049181, "lat": 40.4189473, "lon": -3.7077324, "tags": {"amenity": "pub"}}, {"type": "node", "id": 184049191, "lat": 40.4190743, "lon": -3.706309, "tags": {"addr:city": "Madrid", "addr:housenumber": "5", "addr:postcode": "28013", "addr:street": "Calle del Postigo de San Mart\u00edn", "amenity": "pub", "name": "Do\u00f1a Juana cervecer\u00eda", "phone": "+34 915 215 900", "website": "http://www.cerveceriarestaurantedonajuanamadrid.com/"}}, {"type": "node", "id": 184049245, "lat": 40.4195879, "lon": -3.7056179}, {"type": "node", "id": 184049246, "lat": 40.41961, "lon": -3.705508}, {"type": "node", "id": 184049247, "lat": 40.418919, "lon": -3.7049815}, {"type": "node", "id": 184049248, "lat": 40.4188568, "lon": -3.7051257}, {"type": "node", "id": 184049254, "lat": 40.4187951, "lon": -3.704916, "tags": {"addr:city": "Madrid", "addr:housenumber": "27", "addr:postcode": "28013", "addr:street": "Calle del Carmen", "name": "Viandas de Salamanca", "phone": "+34 915 212 774", "shop": "deli", "website": "http://viandasdesalamanca.es/home/web/nuestras-tiendas/2013/madrid-cel-carmen/"}}, {"type": "node", "id": 184049293, "lat": 40.418183, "lon": -3.7031236, "tags": {"addr:city": "Madrid", "addr:housenumber": "34", "addr:postcode": "28013", "addr:street": "Calle de Tetu\u00e1n", "amenity": "restaurant", "contact:phone": "+34 915 22 47 93", "contact:website": "http://parrillaelgaucho.es/", "name": "El Gaucho"}}, {"type": "node", "id": 184049299, "lat": 40.4178368, "lon": -3.7034663, "tags": {"organic": "yes", "shop": "convenience"}}, {"type": "node", "id": 184049315, "lat": 40.4185047, "lon": -3.7034827, "tags": {"amenity": "cafe", "name": "Vianvi"}}, {"type": "node", "id": 184049330, "lat": 40.419207, "lon": -3.7029076, "tags": {"addr:housenumber": "4", "addr:postcode": "28013", "addr:street": "Calle de las Tres Cruces", "amenity": "restaurant", "contact:website": "https://restaurantevegetarianosolgranvia.com/", "diet:gluten_free": "only", "diet:vegetarian": "only", "name": "Artemisa", "reservation": "yes"}}, {"type": "node", "id": 184049333, "lat": 40.4193933, "lon": -3.7029579, "tags": {"shop": "convenience"}}, {"type": "node", "id": 184049359, "lat": 40.4191018, "lon": -3.7039069, "tags": {"amenity": "bar"}}, {"type": "node", "id": 184049370, "lat": 40.418948, "lon": -3.7037389, "tags": {"addr:city": "Madrid", "addr:housenumber": "2", "addr:postcode": "28013", "addr:street": "Calle Abada", "amenity": "restaurant", "contact:facebook": "https://es-es.facebook.com/takosalpastormadrid", "contact:phone": "+34 680 24 72 17", "cuisine": "mexican", "name": "Takos Al Pastor", "opening_hours": "13:30-00:00; Mo off"}}, {"type": "node", "id": 184049390, "lat": 40.4193676, "lon": -3.703326, "tags": {"addr:housenumber": "13", "addr:postcode": "28013", "addr:street": "Calle de la Salud", "amenity": "cafe", "name": "OVNI"}}, {"type": "node", "id": 184049402, "lat": 40.4193117, "lon": -3.7040573, "tags": {"amenity": "pub"}}, {"type": "node", "id": 184049438, "lat": 40.4202714, "lon": -3.7029282, "tags": {"amenity": "fast_food", "brand": "Pans & Company", "brand:wikidata": "Q11697586", "brand:wikipedia": "es:Pans & Company", "cuisine": "sandwich", "name": "Pans & Company", "takeaway": "yes"}}, {"type": "node", "id": 184049441, "lat": 40.4202661, "lon": -3.7028563, "tags": {"amenity": "cafe", "brand": "Starbucks", "brand:wikidata": "Q37158", "brand:wikipedia": "en:Starbucks", "cuisine": "coffee_shop", "name": "Starbucks", "official_name": "Starbucks Coffee", "takeaway": "yes"}}, {"type": "node", "id": 184049470, "lat": 40.4204138, "lon": -3.7049789, "tags": {"addr:city": "Madrid", "addr:housenumber": "40", "addr:postcode": "28013", "addr:street": "Gran V\u00eda", "amenity": "fast_food", "brand": "Burger King", "brand:wikidata": "Q177054", "brand:wikipedia": "es:Burger King", "cuisine": "burger", "name": "Burger King", "takeaway": "yes", "website": "https://www.burgerking.es"}}, {"type": "node", "id": 184049491, "lat": 40.4200282, "lon": -3.7054691, "tags": {"addr:city": "Madrid", "addr:housenumber": "4", "addr:postcode": "28013", "addr:street": "Plaza de Callao", "amenity": "cafe", "brand": "Starbucks", "brand:wikidata": "Q37158", "brand:wikipedia": "en:Starbucks", "cuisine": "coffee_shop", "name": "Starbucks", "official_name": "Starbucks Coffee", "opening_hours": "07:30 - 00:00", "phone": "+34 912758141", "source": "knowledge", "takeaway": "yes", "website": "http://www.starbucks.es/"}}, {"type": "node", "id": 184049506, "lat": 40.4194819, "lon": -3.7058085, "tags": {"amenity": "fast_food", "brand": "Rodilla", "brand:wikidata": "Q7356777", "brand:wikipedia": "es:Rodilla (franquicia)", "cuisine": "sandwich", "name": "Rodilla", "takeaway": "yes"}}, {"type": "node", "id": 184049552, "lat": 40.4205737, "lon": -3.7068314, "tags": {"addr:city": "Madrid", "addr:housenumber": "43", "addr:postcode": "28013", "addr:street": "Gran V\u00eda", "amenity": "restaurant", "brand": "Ginos", "brand:wikidata": "Q98503664", "cuisine": "italian", "name": "Ginos", "old_name": "VIPS"}}, {"type": "node", "id": 266170054, "lat": 40.4193384, "lon": -3.7080248, "tags": {"addr:city": "Madrid", "addr:country": "ES", "addr:housenumber": "16", "addr:postcode": "28013", "addr:street": "Costanilla de los \u00c1ngeles", "amenity": "fast_food", "educamadrid:tipo_via": "Costanilla", "name": "Spicy Grill & Pizza", "old_name": "Centro Europeo de Estudios Profesionales II"}}, {"type": "node", "id": 266390473, "lat": 40.4127776, "lon": -3.7076389, "tags": {"amenity": "pub", "name": "San Bruno"}}, {"type": "node", "id": 339243711, "lat": 40.4167062, "lon": -3.7007318}, {"type": "node", "id": 339243712, "lat": 40.4167819, "lon": -3.7006584}, {"type": "node", "id": 453232707, "lat": 40.4158435, "lon": -3.702398, "tags": {"amenity": "restaurant", "cuisine": "cuban", "name": "La Negra Tomasa", "phone": "+34 91 523 58 30", "source": "survey", "website": "https://www.lanegratomasa.com/", "wheelchair": "yes"}}, {"type": "node", "id": 510141904, "lat": 40.4166278, "lon": -3.7047732, "tags": {"addr:city": "Madrid", "addr:country": "ES", "addr:housenumber": "8", "addr:postcode": "28013", "addr:street": "Plaza de la Puerta del Sol", "name": "La Mallorquina", "opening_hours": "Mo-Su 08:30-21:15", "phone": "+34915211201", "shop": "pastry", "website": "https://pastelerialamallorquina.es/", "wikidata": "Q5964187", "wikipedia": "es:La Mallorquina"}}, {"type": "node", "id": 510141905, "lat": 40.4163433, "lon": -3.7056737, "tags": {"amenity": "restaurant", "cuisine": "spanish", "name": "Museo del Jam\u00f3n", "opening_hours": "Mo-Su 13:00-24:00"}}, {"type": "node", "id": 510812793, "lat": 40.4157937, "lon": -3.7060266, "tags": {"amenity": "pub", "name": "Cervecer\u00eda Postas Quince"}}, {"type": "node", "id": 510812799, "lat": 40.4158574, "lon": -3.7059152, "tags": {"amenity": "pub", "name": "Cervecer\u00eda Postas", "phone": "+34 915 211 942"}}, {"type": "node", "id": 510812807, "lat": 40.4158992, "lon": -3.7058118, "tags": {"amenity": "fast_food", "brand": "Pans & Company", "brand:wikidata": "Q11697586", "brand:wikipedia": "es:Pans & Company", "cuisine": "sandwich", "name": "Pans & Company", "takeaway": "yes"}}, {"type": "node", "id": 510812824, "lat": 40.4141745, "lon": -3.707981, "tags": {"addr:housenumber": "17", "addr:street": "Calle de Cuchilleros", "amenity": "restaurant", "description:zh": "\u7c73\u5176\u67972\u661f \u6d77\u660e\u5a01 \u592a\u9633\u7167\u5e38\u5347\u8d77 cochinilo", "name": "Bot\u00edn", "name:es": "Bot\u00edn", "name:zh": "\u4e16\u754c\u4e0a\u6700\u53e4\u8001\u7684\u9910\u9986", "opening_hours": "Mo-Su 13:00-16:00, 20:00-00:00", "phone": "+34 91 366 4217", "website": "http://www.botin.es", "wikidata": "Q2263744"}}, {"type": "node", "id": 510812830, "lat": 40.4144651, "lon": -3.7079513, "tags": {"addr:housenumber": "9", "addr:street": "Calle de Cuchilleros", "amenity": "restaurant", "contact:phone": "+34 91 366 20 18", "contact:website": "http://www.tabernadeladaniela.com/", "name": "La Taberna de la Daniela"}}, {"type": "node", "id": 510812876, "lat": 40.4148583, "lon": -3.7081461, "tags": {"addr:housenumber": "1", "addr:street": "Calle de los Cuchilleros", "amenity": "restaurant", "name": "Las Cuevas de Luis Candelas"}}, {"type": "node", "id": 622103565, "lat": 40.4139635, "lon": -3.7031759}, {"type": "node", "id": 622204619, "lat": 40.415621, "lon": -3.6989812, "tags": {"amenity": "restaurant", "cuisine": "peruvian", "name": "El Inti de Oro"}}, {"type": "node", "id": 622204620, "lat": 40.4164715, "lon": -3.6991796, "tags": {"amenity": "restaurant", "cuisine": "regional", "name": "El Subastero\u00a0de M\u00e1laga", "old_name": "Pizza Nostra"}}, {"type": "node", "id": 622204621, "lat": 40.4166035, "lon": -3.7010637, "tags": {"addr:city": "Madrid", "addr:housenumber": "16", "addr:street": "Carrera de San Jer\u00f3nimo", "amenity": "restaurant", "contact:phone": "+34 915233556", "contact:website": "http://www.la-catedral.es/", "name": "Restaurante La Catedral"}}, {"type": "node", "id": 622204622, "lat": 40.4160137, "lon": -3.6989734, "tags": {"amenity": "restaurant", "diet:gluten_free": "only", "diet:vegetarian": "only", "name": "Artemisa", "reservation": "yes", "website": "http://restaurantevegetarianohuertascortes.com/"}}, {"type": "node", "id": 622204623, "lat": 40.4151898, "lon": -3.6992792, "tags": {"addr:city": "Madrid", "addr:housenumber": "15", "addr:postcode": "28014", "addr:street": "Calle de Manuel Fern\u00e1ndez y Gonz\u00e1lez", "amenity": "restaurant", "cuisine": "regional", "name": "El Tronco"}}, {"type": "node", "id": 622204625, "lat": 40.4143568, "lon": -3.7011949, "tags": {"amenity": "bar", "cuisine": "hawaiian", "name": "Bar Hawaiano Mauna Loa"}}, {"type": "node", "id": 622204626, "lat": 40.4142649, "lon": -3.7031442, "tags": {"shop": "ice_cream"}}, {"type": "node", "id": 622204631, "lat": 40.4125936, "lon": -3.7045819, "tags": {"addr:city": "Madrid", "addr:housenumber": "16", "addr:postcode": "28012", "addr:street": "Plaza de Tirso de Molina", "brand": "Lidl", "brand:wikidata": "Q151954", "brand:wikipedia": "en:Lidl", "foot": "yes", "level": "0", "name": "Lidl", "opening_hours": "Mo-Sa 09:00-23:00; Su 10:00-23:00", "operator": "LiDL", "shop": "supermarket", "wheelchair": "limited"}}, {"type": "node", "id": 622204643, "lat": 40.4144723, "lon": -3.7002686, "tags": {"amenity": "restaurant", "name": "Miau"}}, {"type": "node", "id": 622204644, "lat": 40.4141634, "lon": -3.7000816, "tags": {"addr:city": "Madrid", "addr:country": "ES", "addr:housenumber": "33", "addr:postcode": "28012", "addr:street": "Calle del Pr\u00edncipe", "amenity": "pub", "description": "Irish pub", "name": "El Parnasillo del Principe", "website": "https://elparnasillo.com/"}}, {"type": "node", "id": 623071255, "lat": 40.4211338, "lon": -3.7069741, "tags": {"addr:city": "Madrid", "addr:housenumber": "52", "addr:postcode": "28013", "addr:street": "Gran V\u00eda", "alt_name": "Kentucky Fried Chicken", "amenity": "fast_food", "brand": "KFC", "brand:wikidata": "Q524757", "brand:wikipedia": "en:KFC", "cuisine": "chicken", "name": "KFC", "operator": "Kentucky Fried Chicken", "phone": "+34 91 758 53 30", "takeaway": "yes", "website": "http://www.kfc.es/#/home/"}}, {"type": "node", "id": 623953553, "lat": 40.4180265, "lon": -3.6995474, "tags": {"amenity": "cafe", "brand": "Starbucks", "brand:wikidata": "Q37158", "brand:wikipedia": "en:Starbucks", "cuisine": "coffee_shop", "name": "Starbucks", "official_name": "Starbucks Coffee", "source": "survey", "takeaway": "yes"}}, {"type": "node", "id": 624783119, "lat": 40.4204325, "lon": -3.6980433, "tags": {"brand": "Dia", "brand:wikidata": "Q925132", "brand:wikipedia": "es:DIA (supermercados)", "name": "Dia", "opening_hours": "Mo-Sa 09:15-21:30", "operator": "Dia", "shop": "supermarket"}}, {"type": "node", "id": 818865803, "lat": 40.415143, "lon": -3.6992261, "tags": {"addr:city": "Madrid", "addr:housenumber": "8", "addr:postcode": "28014", "addr:street": "Calle de Manuel Fern\u00e1ndez y Gonz\u00e1lez", "amenity": "restaurant", "cuisine": "spanish", "name": "El Lac\u00f3n", "opening_hours": "Mo-Su 13:00-16:00,20:00+", "phone": "+34 914 29 6042", "website": "http://www.mesonellacon.com", "wheelchair": "no"}}, {"type": "node", "id": 818870699, "lat": 40.4160304, "lon": -3.6987327, "tags": {"addr:city": "Madrid", "addr:country": "ES", "addr:housenumber": "3", "addr:postcode": "28014", "addr:street": "Calle de Ventura de la Vega", "amenity": "restaurant", "name": "Hylogui", "website": "https://restaurantehylogui.com/"}}, {"type": "node", "id": 851942098, "lat": 40.415043, "lon": -3.7065602, "tags": {"addr:housename": "LOS GALAYOS", "addr:housenumber": "5", "addr:postcode": "28012", "addr:street": "Calle Botoneras", "alt_name": "GALAYOS", "amenity": "restaurant", "cuisine": "spanish", "int_name": "LOS GALAYOS", "name": "Los Galayos", "old_name": "LOS GALAYOS", "website": "https://www.losgalayos.net/"}}, {"type": "node", "id": 885680155, "lat": 40.4189929, "lon": -3.7077919, "tags": {"addr:city": "Madrid", "addr:housenumber": "4", "addr:postcode": "28013", "addr:street": "Calle de las Conchas", "amenity": "restaurant", "contact:phone": "+34 91 559 29 39", "contact:website": "http://www.musashimadrid.com/", "cuisine": "japanese", "name": "Musashi"}}, {"type": "node", "id": 885680156, "lat": 40.4189106, "lon": -3.7074573, "tags": {"addr:city": "Madrid", "addr:housenumber": "9", "addr:postcode": "28013", "addr:street": "Calle de los Trujillos", "amenity": "restaurant", "cuisine": "regional", "name": "Casa Parrondo"}}, {"type": "node", "id": 885680159, "lat": 40.4197145, "lon": -3.7088476, "tags": {"addr:city": "Madrid", "addr:postcode": "28013", "addr:street": "Cuesta de Santo Domingo", "amenity": "restaurant", "cuisine": "regional", "name": "A Coru\u00f1a", "old_name": "La Huerta de Lleida"}}, {"type": "node", "id": 885680162, "lat": 40.4197224, "lon": -3.7078497, "tags": {"addr:city": "Madrid", "addr:postcode": "28013", "addr:street": "Plaza de Santo Domingo", "amenity": "cafe", "brand": "Tim Hortons", "brand:wikidata": "Q175106", "brand:wikipedia": "en:Tim Hortons", "cuisine": "coffee_shop", "email": "domicilios@nipponsei.es", "name": "Tim Hortons", "old_name": "Nipponsei Sushi & Club Experience", "takeaway": "yes"}}, {"type": "node", "id": 988698209, "lat": 40.4131935, "lon": -3.7075758, "tags": {"addr:city": "Madrid", "addr:country": "ES", "addr:postcode": "28005", "addr:state": "Madrid", "addr:street": "Plaza Segovia Nueva", "brand": "Dia & Go", "brand:wikidata": "Q925132", "brand:wikipedia": "es:Supermercados DIA", "name": "Dia & Go", "old_name": "DIA Maxi;Dia Market", "shop": "convenience"}}, {"type": "node", "id": 1010993672, "lat": 40.4122872, "lon": -3.7012279, "tags": {"brand": "Dia", "brand:wikidata": "Q925132", "brand:wikipedia": "es:DIA (supermercados)", "name": "Dia", "shop": "supermarket", "wheelchair": "yes"}}, {"type": "node", "id": 1180030639, "lat": 40.41364, "lon": -3.7078009, "tags": {"addr:city": "Madrid", "addr:housenumber": "4", "addr:street": "Calle Tintoreros", "amenity": "restaurant", "name": "La Cueva de La Tina", "old_name": "La Miguela", "old_name_1": "Tercio Viejo de Sarmiento"}}, {"type": "node", "id": 1187929681, "lat": 40.4157405, "lon": -3.7017617, "tags": {"addr:city": "Madrid", "addr:housenumber": "12", "addr:street": "Calle de la Victoria", "amenity": "restaurant", "contact:website": "http://lacasadelabuelo.es/", "name": "La Casa del Abuelo", "phone": "+34 91 521 2319"}}, {"type": "node", "id": 1187929752, "lat": 40.4129955, "lon": -3.708661, "tags": {"addr:housenumber": "16", "addr:street": "Calle de la Cava Baja", "amenity": "restaurant", "fax": "+34 91 366 44 19", "name": "La Cava de Ill\u00e1n", "phone": "+34 91 366 3883"}}, {"type": "node", "id": 1259427733, "lat": 40.4147794, "lon": -3.698653, "tags": {"addr:city": "Madrid", "addr:country": "ES", "addr:housenumber": "16", "addr:postcode": "28014", "addr:street": "Calle del Prado", "amenity": "restaurant", "name": "Lamucca de Prado", "opening_hours": "Mo-Th 13:00-01:00; Fr-Su 13:00-02:00", "phone": "+34 915 21 0000", "website": "https://lamuccacompany.com/lamucca-de-prado/"}}, {"type": "node", "id": 1276929170, "lat": 40.4195047, "lon": -3.7047777}, {"type": "node", "id": 1276929171, "lat": 40.4197254, "lon": -3.7054983}, {"type": "node", "id": 1276929172, "lat": 40.4194535, "lon": -3.704558}, {"type": "node", "id": 1276929173, "lat": 40.4193054, "lon": -3.7045675}, {"type": "node", "id": 1276929174, "lat": 40.4198745, "lon": -3.7052142}, {"type": "node", "id": 1276929175, "lat": 40.4191591, "lon": -3.7047431}, {"type": "node", "id": 1276929176, "lat": 40.4196759, "lon": -3.705067}, {"type": "node", "id": 1276929177, "lat": 40.4197194, "lon": -3.7054725}, {"type": "node", "id": 1276929178, "lat": 40.419798, "lon": -3.7055538}, {"type": "node", "id": 1276929179, "lat": 40.4197458, "lon": -3.7049672}, {"type": "node", "id": 1276929180, "lat": 40.4192227, "lon": -3.7047246}, {"type": "node", "id": 1276929181, "lat": 40.4198683, "lon": -3.7055394}, {"type": "node", "id": 1276929182, "lat": 40.4195263, "lon": -3.7047323}, {"type": "node", "id": 1276929183, "lat": 40.419331, "lon": -3.7049376}, {"type": "node", "id": 1276929184, "lat": 40.4198818, "lon": -3.7055131}, {"type": "node", "id": 1276929185, "lat": 40.4199063, "lon": -3.7055163}, {"type": "node", "id": 1276929186, "lat": 40.4197597, "lon": -3.7052242}, {"type": "node", "id": 1276929187, "lat": 40.4192543, "lon": -3.7051059}, {"type": "node", "id": 1277025638, "lat": 40.4156034, "lon": -3.7092267, "tags": {"addr:city": "Madrid", "addr:country": "ES", "addr:housenumber": "2", "addr:postcode": "28005", "addr:street": "Plaza de San Miguel", "amenity": "pub", "internet_access": "no", "name": "Cervecer\u00eda La Plaza", "operator": "Esjoan S.L.", "phone": "+34 91 5484111", "smoking": "dedicated"}}, {"type": "node", "id": 1329861133, "lat": 40.4124541, "lon": -3.7084514, "tags": {"amenity": "restaurant", "name": "Cava Mar\u00eda", "old_name": "Cava blanca", "smoking": "no", "website": "http://www.cavamaria.es/about/"}}, {"type": "node", "id": 1329861138, "lat": 40.4122248, "lon": -3.7081255, "tags": {"amenity": "restaurant", "cuisine": "regional", "name": "La Latina", "smoking": "no"}}, {"type": "node", "id": 1329861148, "lat": 40.4122689, "lon": -3.7088555, "tags": {"addr:city": "Madrid", "addr:housenumber": "13", "addr:postcode": "28005", "addr:street": "Calle de la Cava Alta", "amenity": "restaurant", "cuisine": "burger", "name": "Mad Caf\u00e9", "wifi": "no"}}, {"type": "node", "id": 1416648305, "lat": 40.4170322, "lon": -3.6995917, "tags": {"addr:housenumber": "1", "addr:postcode": "28014", "addr:street": "Calle de Arlab\u00e1n", "amenity": "restaurant", "cuisine": "spanish", "name": "El Patio"}}, {"type": "node", "id": 1428141699, "lat": 40.4157993, "lon": -3.6995741, "tags": {"addr:city": "Madrid", "addr:country": "ES", "addr:housenumber": "7", "addr:postcode": "28014", "addr:street": "Calle de Echegaray", "amenity": "bar", "cuisine": "tapas", "description": "Mo-Su 12:30-15:30,19:30+", "name": "La Venencia", "opening_hours": "Mo-Su 12:30-15:30,19:30+"}}, {"type": "node", "id": 1428147941, "lat": 40.4145296, "lon": -3.6997834, "tags": {"amenity": "restaurant", "name": "Caff\u00e9 dei Poeti"}}, {"type": "node", "id": 1428173987, "lat": 40.4150912, "lon": -3.6995411, "tags": {"addr:city": "Madrid", "addr:housenumber": "19", "addr:postcode": "28014", "addr:street": "Calle de Echegaray", "contact:facebook": "https://es-es.facebook.com/licorescabello/", "contact:phone": "+34 914 29 60 88", "name": "Licores Cabello", "shop": "alcohol", "wheelchair": "no"}}, {"type": "node", "id": 1429333765, "lat": 40.415914, "lon": -3.6989759, "tags": {"amenity": "restaurant", "cuisine": "indian", "name": "Aroma"}}, {"type": "node", "id": 1517405725, "lat": 40.4141212, "lon": -3.7012349, "tags": {"addr:city": "Madrid", "addr:housenumber": "3", "addr:postcode": "28012", "addr:street": "Calle de las Huertas", "amenity": "restaurant", "contact:website": "http://delolivorestaurante.es/", "name": "Del Olivo", "old_name": "Huertas Uno", "old_name_1": "Phenicio", "old_name_2": "Al-Batra"}}, {"type": "node", "id": 1517405726, "lat": 40.4163668, "lon": -3.7015661, "tags": {"amenity": "bar", "name": "La Fontana de Oro"}}, {"type": "node", "id": 1530471404, "lat": 40.4200398, "lon": -3.6989861, "tags": {"addr:city": "Madrid", "addr:housenumber": "27", "addr:postcode": "28004", "addr:street": "Calle de la Reina", "amenity": "restaurant", "contact:facebook": "https://www.facebook.com/pages/Janatomo/162862717089842", "contact:phone": "+34 915 21 55 66", "cuisine": "japanese", "name": "Janatomo"}}, {"type": "node", "id": 1530471409, "lat": 40.4202793, "lon": -3.6998454, "tags": {"addr:city": "Madrid", "addr:housenumber": "15", "addr:postcode": "28004", "addr:street": "Calle de la Reina", "amenity": "restaurant", "contact:email": "contact@restaurante-petitcomite.com", "contact:phone": "+34 91 521 75 52", "contact:website": "http://restaurante-petitcomite.com/", "cuisine": "french", "name": "Petit Comit\u00e9"}}, {"type": "node", "id": 1530471413, "lat": 40.420611, "lon": -3.7007827, "tags": {"addr:city": "Madrid", "addr:country": "ES", "addr:housenumber": "4", "addr:street": "Calle de Hortaleza", "amenity": "restaurant", "contact:email": "vesuviomad@gmail.com", "contact:facebook": "Pizzer\u00eda Vesuvio-Hortalez", "contact:phone": "+34 91 521 51 71", "cuisine": "pizza", "name": "Vesuvio Pizza"}}, {"type": "node", "id": 1530471414, "lat": 40.420186, "lon": -3.6993425, "tags": {"addr:city": "Madrid", "addr:housenumber": "6", "addr:postcode": "28004", "addr:street": "Calle del Clavel", "amenity": "restaurant", "contact:phone": "+34 91 532 33 69", "cuisine": "japanese", "name": "Udon Chueca", "opening_hours": "Tu-Su 13:00-24:00", "source": "survey", "website": "http://www.udon.es"}}, {"type": "node", "id": 1531413616, "lat": 40.4200269, "lon": -3.699222, "tags": {"addr:housenumber": "12", "addr:street": "Calle de la Reina", "amenity": "restaurant", "name": "Del Diego", "website": "http://www.deldiego.com/"}}, {"type": "node", "id": 1541570695, "lat": 40.4205089, "lon": -3.6992036, "tags": {"name": "Open 24", "shop": "convenience", "source": "survey"}}, {"type": "node", "id": 1556708378, "lat": 40.4174103, "lon": -3.7030513, "tags": {"alt_name": "Kentucky Fried Chicken", "amenity": "fast_food", "brand": "KFC", "brand:wikidata": "Q524757", "brand:wikipedia": "en:KFC", "cuisine": "chicken", "name": "KFC", "takeaway": "yes"}}, {"type": "node", "id": 1556708393, "lat": 40.4177708, "lon": -3.7092092, "tags": {"amenity": "fast_food", "brand": "McDonald's", "brand:wikidata": "Q38076", "brand:wikipedia": "en:McDonald's", "cuisine": "burger", "name": "McDonald's", "takeaway": "yes"}}, {"type": "node", "id": 1556708463, "lat": 40.4187577, "lon": -3.7086523, "tags": {"addr:city": "Madrid", "addr:postcode": "28013", "addr:street": "Calle de Ca\u00f1os del Peral", "amenity": "restaurant", "cuisine": "italian", "name": "Ouh Babbo!"}}, {"type": "node", "id": 1558636931, "lat": 40.4124253, "lon": -3.700367, "tags": {"addr:city": "Madrid", "addr:country": "ES", "addr:housenumber": "27", "addr:postcode": "28012", "addr:street": "Calle de la Magdalena", "name": "Acid Bakehouse", "old_name": "La Recoba", "shop": "bakery", "survey:date": "2022-07-23"}}, {"type": "node", "id": 1558636959, "lat": 40.4125838, "lon": -3.69987}, {"type": "node", "id": 1558636960, "lat": 40.4125819, "lon": -3.6997974}, {"type": "node", "id": 1558636963, "lat": 40.4126474, "lon": -3.6998027}, {"type": "node", "id": 1572572823, "lat": 40.414069, "lon": -3.7037744, "tags": {"amenity": "restaurant", "cuisine": "italian", "name": "La Tagliatella"}}, {"type": "node", "id": 1572572832, "lat": 40.4132655, "lon": -3.7037223, "tags": {"amenity": "fast_food", "name": "El Turkito"}}, {"type": "node", "id": 1623075018, "lat": 40.4139047, "lon": -3.6989568, "tags": {"amenity": "restaurant", "name": "El Le\u00f3n de Oro"}}, {"type": "node", "id": 1623075022, "lat": 40.4136579, "lon": -3.6988496, "tags": {"addr:city": "Madrid", "addr:country": "ES", "addr:housenumber": "29", "addr:postcode": "28014", "addr:street": "Calle de las Huertas", "amenity": "restaurant", "cuisine": "arab", "name": "Miranda", "phone": "+34913691025"}}, {"type": "node", "id": 1623075025, "lat": 40.4143757, "lon": -3.6984651, "tags": {"amenity": "restaurant", "cuisine": "pizza", "name": "Pizzamascalzone", "survey:date": "2022-07-23", "website": "https://www.pizzamascalzone.com/"}}, {"type": "node", "id": 1623075074, "lat": 40.4137398, "lon": -3.6990645, "tags": {"shop": "convenience"}}, {"type": "node", "id": 1632020527, "lat": 40.4192475, "lon": -3.7045106, "tags": {"addr:city": "Madrid", "addr:country": "ES", "addr:housenumber": "6", "addr:postcode": "28013", "addr:street": "Calle de Mesonero Romanos", "amenity": "restaurant", "cuisine": "regional", "name": "La Sole\u00e1", "old_name": "Cervecer\u00eda Cruz Blanca"}}, {"type": "node", "id": 1632020529, "lat": 40.4188332, "lon": -3.7047743, "tags": {"name": "La Casa del Bacalao", "shop": "seafood", "source": "knowledge"}}, {"type": "node", "id": 1642177932, "lat": 40.4202981, "lon": -3.7073096, "tags": {"addr:city": "Madrid", "addr:housenumber": "4", "addr:postcode": "28013", "addr:street": "Calle de Jacometrezo", "amenity": "cafe", "name": "Antiguo Caf\u00e9 Berl\u00edn"}}, {"type": "node", "id": 1642177936, "lat": 40.4197484, "lon": -3.7066739, "tags": {"addr:city": "Madrid", "addr:housenumber": "34", "addr:postcode": "28013", "addr:street": "Calle Preciados", "amenity": "restaurant", "contact:phone": "+34 910 60 18 88", "contact:website": "https://antoinette.es/", "cuisine": "french", "name": "Antoinette", "old_name": "Chimi-Churri", "old_name_1": "La Tortillita"}}, {"type": "node", "id": 1645108301, "lat": 40.4167223, "lon": -3.7092524, "tags": {"addr:city": "Madrid", "addr:housenumber": "6", "addr:postcode": "28013", "addr:street": "Calle del Mes\u00f3n de Pa\u00f1os", "amenity": "cafe", "contact:facebook": "https://es-es.facebook.com/pages/CAFE-MADRID/286286309119", "name": "Caf\u00e9 Madrid"}}, {"type": "node", "id": 1645108307, "lat": 40.4125509, "lon": -3.7032669, "tags": {"amenity": "bar", "name": "C\u00f3mete el Mundo", "old_name": "La Tapa del Mundo"}}, {"type": "node", "id": 1645108310, "lat": 40.4165281, "lon": -3.7031723, "tags": {"addr:city": "Madrid", "addr:country": "ES", "addr:housenumber": "3", "addr:postcode": "28012", "addr:street": "Calle de Carretas", "amenity": "fast_food", "cuisine": "pizza", "name": "PaPizza"}}, {"type": "node", "id": 1645108338, "lat": 40.4175227, "lon": -3.7073279, "tags": {"addr:city": "Madrid", "addr:housenumber": "20", "addr:postcode": "28013", "addr:street": "Calle Arenal", "amenity": "cafe", "contact:website": "http://cafeandte.com/", "name": "Caf\u00e9 & T\u00e9", "wheelchair": "limited"}}, {"type": "node", "id": 1648675791, "lat": 40.4153409, "lon": -3.7057471}, {"type": "node", "id": 1682266082, "lat": 40.4168088, "lon": -3.7006091}, {"type": "node", "id": 1706515358, "lat": 40.4181191, "lon": -3.699256, "tags": {"addr:housenumber": "23", "addr:postcode": "28014", "addr:street": "Calle de Alcal\u00e1", "amenity": "restaurant", "brand": "Vips", "brand:wikidata": "Q66087862", "cuisine": "international", "name": "Vips"}}, {"type": "node", "id": 1706515364, "lat": 40.4181354, "lon": -3.6991863, "tags": {"amenity": "restaurant", "brand": "Ginos", "brand:wikidata": "Q98503664", "cuisine": "italian", "name": "Ginos"}}, {"type": "node", "id": 1782593791, "lat": 40.4177469, "lon": -3.6992086, "tags": {"addr:city": "Madrid", "addr:housenumber": "18", "addr:postcode": "28014", "addr:street": "Calle de Alcal\u00e1", "addr:ward": "Sol", "amenity": "fast_food", "brand": "McDonald's", "brand:wikidata": "Q38076", "brand:wikipedia": "es:McDonald's", "cuisine": "burger", "name": "McDonald's", "takeaway": "yes"}}, {"type": "node", "id": 1782593803, "lat": 40.4172008, "lon": -3.7038681, "tags": {"amenity": "ice_cream", "name": "Helados Palazzo", "source": "survey"}}, {"type": "node", "id": 1782593806, "lat": 40.4127889, "lon": -3.6997456, "tags": {"addr:city": "Madrid", "addr:country": "ES", "addr:housenumber": "57", "addr:postcode": "28012", "addr:street": "Calle de Atocha", "amenity": "restaurant", "name": "La Vera", "phone": "+34 91 429 97 98", "source": "survey"}}, {"type": "node", "id": 1789051703, "lat": 40.4164803, "lon": -3.7077567, "tags": {"addr:city": "Madrid", "addr:country": "ES", "addr:housenumber": "5", "addr:street": "Calle de Bordadores", "amenity": "restaurant", "cuisine": "asturian", "email": "info@restauranteelneru.com", "name": "El \u00d1eru", "phone": "+34-915481977", "smoking": "no", "website": "http://www.restauranteelneru.com"}}, {"type": "node", "id": 1956394142, "lat": 40.4207921, "lon": -3.7041564, "tags": {"addr:housenumber": "3", "addr:street": "Traves\u00eda del Horno de la Mata", "amenity": "bar", "internet_access": "wlan", "internet_access:fee": "no", "name": "El chiringuito"}}, {"type": "node", "id": 1999960212, "lat": 40.4178744, "lon": -3.707577, "tags": {"addr:street": "Calle de las Hileras", "amenity": "pub", "name": "Cibeles", "wifi": "no"}}, {"type": "node", "id": 2028617655, "lat": 40.4151701, "lon": -3.7018097, "tags": {"amenity": "restaurant", "name": "Taberna Pompeyana"}}, {"type": "node", "id": 2028689786, "lat": 40.4157775, "lon": -3.7004261, "tags": {"addr:city": "Madrid", "addr:housenumber": "12", "addr:postcode": "28012", "addr:street": "Calle del Pr\u00edncipe", "amenity": "pub", "name": "La cocteler\u00eda", "old_name": "O'Neills"}}, {"type": "node", "id": 2046224575, "lat": 40.4197656, "lon": -3.7068279, "tags": {"addr:city": "Madrid", "addr:housenumber": "36", "addr:postcode": "28013", "addr:street": "Calle Preciados", "amenity": "restaurant", "cuisine": "italian", "name": "La Tagliatella", "old_name": "All U Can Eat", "phone": "+34 915229121", "website": "https://www.latagliatella.es/restaurantes/la-tagliatella-preciados/"}}, {"type": "node", "id": 2046224594, "lat": 40.4189978, "lon": -3.7063507, "tags": {"addr:city": "Madrid", "addr:housenumber": "5", "addr:postcode": "28013", "addr:street": "Calle del Postigo de San Mart\u00edn", "amenity": "restaurant", "contact:phone": "+34 911 05 1036", "contact:website": "https://preityraj2.com/", "cuisine": "indian", "name": "Preity Raj 2", "old_name": "Carpe Diem vinoteca"}}, {"type": "node", "id": 2046224601, "lat": 40.4192012, "lon": -3.7061483, "tags": {"addr:city": "Madrid", "addr:housenumber": "7", "addr:postcode": "28013", "addr:street": "Calle del Postigo de San Mart\u00edn", "amenity": "cafe", "cuisine": "chocolate", "name": "Chocolater\u00eda Valor", "phone": "+34 91 522 92 88", "website": "http://www.chocolateriasvalor.es/localizacion/chocolateria/madrid/madrid-postigo-de-san-martin/22"}}, {"type": "node", "id": 2046739424, "lat": 40.4180559, "lon": -3.7051428}, {"type": "node", "id": 2046739427, "lat": 40.4177968, "lon": -3.7047693}, {"type": "node", "id": 2046739429, "lat": 40.4175989, "lon": -3.7052265}, {"type": "node", "id": 2046739431, "lat": 40.4172647, "lon": -3.7046946}, {"type": "node", "id": 2046739435, "lat": 40.4176895, "lon": -3.7054975}, {"type": "node", "id": 2046739438, "lat": 40.4178483, "lon": -3.7046335}, {"type": "node", "id": 2046739440, "lat": 40.4173853, "lon": -3.7053181}, {"type": "node", "id": 2046739442, "lat": 40.4180426, "lon": -3.704909}, {"type": "node", "id": 2046739444, "lat": 40.4173433, "lon": -3.7044062}, {"type": "node", "id": 2046739446, "lat": 40.4180977, "lon": -3.7052609}, {"type": "node", "id": 2046739448, "lat": 40.4172737, "lon": -3.7045846}, {"type": "node", "id": 2046739450, "lat": 40.4173874, "lon": -3.7043295}, {"type": "node", "id": 2046739451, "lat": 40.4178045, "lon": -3.7049561}, {"type": "node", "id": 2128038040, "lat": 40.4189932, "lon": -3.7093862, "tags": {"addr:city": "Madrid", "addr:housenumber": "5", "addr:postcode": "28013", "addr:street": "Calle de Campomanes", "amenity": "restaurant", "contact:facebook": "https://www.facebook.com/Sanissimoopera/", "diet:vegan": "yes", "diet:vegetarian": "only", "name": "Sanissimo", "old_name": "Restaurante Chic", "old_name_1": "Il Particolare", "website": "http://www.sanissimo.eu/opera/"}}, {"type": "node", "id": 2128038044, "lat": 40.4195482, "lon": -3.7092627, "tags": {"addr:country": "ES", "name": "Panader\u00eda Viena", "shop": "bakery"}}, {"type": "node", "id": 2128038054, "lat": 40.4196721, "lon": -3.7091627, "tags": {"addr:city": "Madrid", "addr:housenumber": "14", "addr:postcode": "28013", "addr:street": "Cuesta de Santo Domingo", "amenity": "restaurant", "cuisine": "greek", "email": "info@restaurantedelfos.es", "name": "Delfos", "phone": "+34 915 48 37 64", "website": "http://www.restaurantedelfos.es/"}}, {"type": "node", "id": 2180149404, "lat": 40.4159786, "lon": -3.7016048, "tags": {"addr:city": "Madrid", "addr:housenumber": "9", "addr:postcode": "28012", "addr:street": "Calle de la Victoria", "amenity": "restaurant", "contact:facebook": "https://www.facebook.com/pages/Taberna-La-Alhambra/147263902001137", "name": "Taberna La Alhambra", "wikidata": "Q54894139"}}, {"type": "node", "id": 2250387742, "lat": 40.4170622, "lon": -3.7039035, "tags": {"shop": "kiosk"}}, {"type": "node", "id": 2261299371, "lat": 40.4141837, "lon": -3.7018737, "tags": {"addr:housenumber": "10", "addr:street": "Plaza del \u00c1ngel", "amenity": "bar", "name": "Caf\u00e9 Central", "source": "+34 913 69 41 43", "website": "https://www.cafecentralmadrid.com/"}}, {"type": "node", "id": 2261312784, "lat": 40.4154165, "lon": -3.7004013, "tags": {"addr:city": "Madrid", "addr:country": "ES", "addr:housenumber": "16", "addr:postcode": "28012", "addr:street": "Calle del Pr\u00edncipe", "amenity": "bar", "name": "La fiebre", "old_name": "Bar de la Comedia", "phone": "+34 696 56 39 09", "website": "https://lafiebremadrid.com/"}}, {"type": "node", "id": 2323109593, "lat": 40.4166091, "lon": -3.7015702, "tags": {"amenity": "restaurant", "cuisine": "regional", "name": "Museo del Jam\u00f3n", "wheelchair": "yes"}}, {"type": "node", "id": 2350754843, "lat": 40.4163792, "lon": -3.7078349, "tags": {"addr:housenumber": "3", "addr:street": "Calle de Bordadores", "amenity": "restaurant", "diet:gluten_free": "yes", "diet:vegan": "yes", "diet:vegetarian": "only", "email": "yerbabuena@yerbabuena.ws", "name": "Yerbabuena", "opening_hours": "Mo-Sa 13:00-16:30,20:00-24:00", "phone": "+34 915480811", "website": "http://www.yerbabuena.ws/"}}, {"type": "node", "id": 2379568327, "lat": 40.4183316, "lon": -3.7043938, "tags": {"addr:city": "Madrid", "addr:country": "ES", "addr:housenumber": "17", "addr:postcode": "28013", "addr:street": "Calle del Carmen", "amenity": "restaurant", "cuisine": "spanish", "name": "Caf\u00e9 Carmen", "old_name": "Galache", "wheelchair": "limited"}}, {"type": "node", "id": 2379595314, "lat": 40.4143652, "lon": -3.7011349, "tags": {"addr:city": "Madrid", "addr:country": "ES", "addr:housenumber": "12", "addr:postcode": "28012", "addr:street": "Plaza de Santa Ana", "amenity": "restaurant", "name": "Lateral Santa Ana", "opening_hours": "Mo-We, Su 12:00-00:00; Th-Sa 12:00-02:00", "phone": "+34 914 20 1582", "toilets:wheelchair": "no", "website": "http://www.lateral.com", "wheelchair": "limited", "wheelchair:description": "Step at entrance, WCs in basement via stairs. Accessible tables on square."}}, {"type": "node", "id": 2408774175, "lat": 40.412933, "lon": -3.6992076, "tags": {"addr:city": "Madrid", "addr:country": "ES", "addr:housenumber": "29", "addr:postcode": "28014", "addr:street": "Calle del Le\u00f3n", "name": "Liqorilandia", "shop": "alcohol"}}, {"type": "node", "id": 2433476922, "lat": 40.4143768, "lon": -3.7070561, "tags": {"brand": "Carrefour Express", "brand:wikidata": "Q2940190", "brand:wikipedia": "fr:Carrefour Express", "name": "Carrefour Express", "old_name": "Carrefour Express", "opening_hours": "Mo-Su 09:00-22:00", "shop": "convenience", "wheelchair": "no"}}, {"type": "node", "id": 2433476945, "lat": 40.4203301, "lon": -3.7085914, "tags": {"air_conditioning": "yes", "brand": "Dia Market", "brand:wikidata": "Q925132", "brand:wikipedia": "es:Supermercados DIA", "name": "Dia Market", "opening_hours": "Mo-Sa 09:30-21:30, Su 10:00-20:00", "shop": "supermarket", "wheelchair": "yes"}}, {"type": "node", "id": 2433477072, "lat": 40.4156102, "lon": -3.7012139, "tags": {"brand": "Suma", "brand:wikidata": "Q58012362", "name": "Suma", "old_name": "Spar", "opening_hours": "Mo-Sa 09:00-22:00", "shop": "supermarket"}}, {"type": "node", "id": 2437723822, "lat": 40.4154628, "lon": -3.6995579, "tags": {"addr:city": "Madrid", "addr:housenumber": "15", "addr:postcode": "28014", "addr:street": "Calle de Echegaray", "amenity": "bar", "contact:email": "contacto@cardamomo.es", "contact:phone": "+34 918 051 038", "name": "Cardamomo", "website": "http://cardamomo.es/"}}, {"type": "node", "id": 2437748220, "lat": 40.4165272, "lon": -3.6995613, "tags": {"addr:city": "Madrid", "addr:street": "Carrera de San Jer\u00f3nimo", "amenity": "restaurant", "name": "La Rollerie", "old_name": "Uni\u00f3n Musical Espa\u00f1ola"}}, {"type": "node", "id": 2437748225, "lat": 40.4166082, "lon": -3.7013775, "tags": {"amenity": "restaurant", "name": "Lhardy", "phone": "+34 915 213 385", "website": "https://lhardy.com/", "wikidata": "Q3237508"}}, {"type": "node", "id": 2437748228, "lat": 40.4164268, "lon": -3.7017415, "tags": {"amenity": "restaurant", "cuisine": "regional", "name": "Pulper\u00eda de Victoria"}}, {"type": "node", "id": 2437797880, "lat": 40.416251, "lon": -3.7011943, "tags": {"addr:city": "Madrid", "addr:housenumber": "6", "addr:postcode": "28012", "addr:street": "Calle del Pozo", "name": "El Pozo", "phone": "+91 502 31 92", "shop": "confectionery"}}, {"type": "node", "id": 2447545264, "lat": 40.4132143, "lon": -3.7006769, "tags": {"addr:city": "Madrid", "addr:country": "ES", "addr:housenumber": "47", "addr:postcode": "28012", "addr:street": "Calle de Atocha", "amenity": "fast_food", "cuisine": "soup;sandwiches;salads", "internet_access": "yes", "name": "Zuppa", "opening_hours": "Mo-Sa 12:00-23:00", "payment:cash": "yes", "payment:contactless": "yes", "source": "https://zuppa.es/", "takeaway": "yes", "website": "https://zuppa.es/", "wheelchair": "yes"}}, {"type": "node", "id": 2449728805, "lat": 40.4125848, "lon": -3.7036451, "tags": {"amenity": "restaurant", "name": "La Carpa", "wheelchair": "yes"}}, {"type": "node", "id": 2449728807, "lat": 40.4179379, "lon": -3.7090038, "tags": {"amenity": "biergarten", "name": "Taberna Real"}}, {"type": "node", "id": 2449728809, "lat": 40.4125695, "lon": -3.7042471, "tags": {"name": "Don Fruta", "shop": "greengrocer", "wheelchair": "limited"}}, {"type": "node", "id": 2449728810, "lat": 40.4178517, "lon": -3.7094036, "tags": {"shop": "kiosk"}}, {"type": "node", "id": 2449728812, "lat": 40.4122196, "lon": -3.704069}, {"type": "node", "id": 2449728813, "lat": 40.4181945, "lon": -3.70899, "tags": {"addr:city": "Madrid", "addr:country": "ES", "addr:housenumber": "2", "addr:postcode": "28013", "addr:street": "Plaza de Isabel II", "amenity": "restaurant", "cuisine": "argentinian", "name": "De Mar\u00eda \u00d3pera", "phone": "+34 91 5479305", "source": "personal observation", "website": "http://demariafelixboix.es"}}, {"type": "node", "id": 2449728814, "lat": 40.4125686, "lon": -3.7041644, "tags": {"amenity": "restaurant", "name": "Apolo", "wheelchair": "no"}}, {"type": "node", "id": 2458105107, "lat": 40.4153209, "lon": -3.7065788, "tags": {"addr:city": "Madrid", "addr:country": "ES", "addr:housenumber": "35", "addr:postcode": "28012", "addr:street": "Plaza Mayor", "amenity": "restaurant", "cuisine": "regional", "name": "Restaurante Hegar", "phone": "+34 91 2664280", "source": "personal observation"}}, {"type": "node", "id": 2494908510, "lat": 40.4138307, "lon": -3.6979373, "tags": {"addr:city": "Madrid", "addr:country": "ES", "addr:housenumber": "15", "addr:postcode": "28014", "addr:street": "Calle de Lope de Vega", "amenity": "restaurant", "cuisine": "tapas", "name": "Pasto", "old_name": "La Petisa", "phone": "+34 911 10 40 72", "website": "http://www.lapetisabar.com"}}, {"type": "node", "id": 2494912095, "lat": 40.4151932, "lon": -3.6991697, "tags": {"addr:city": "Madrid", "addr:housenumber": "17", "addr:postcode": "28014", "addr:street": "Calle de Manuel Fern\u00e1ndez y Gonz\u00e1lez", "amenity": "restaurant", "contact:website": "http://www.indianspice.es/find-us/", "cuisine": "indian", "name": "Indian Spice", "phone": "+34 914 29 54 06"}}, {"type": "node", "id": 2501139645, "lat": 40.412593, "lon": -3.7088178, "tags": {"addr:city": "Madrid", "addr:housenumber": "17", "addr:postcode": "28005", "addr:street": "Calle de la Cava Baja", "amenity": "restaurant", "name": "Cava Baja 17", "old_name": "Orixe", "website": "http://cavabaja17.es/"}}, {"type": "node", "id": 2505396736, "lat": 40.4172616, "lon": -3.704639}, {"type": "node", "id": 2505396737, "lat": 40.417356, "lon": -3.7044148}, {"type": "node", "id": 2505396738, "lat": 40.4173744, "lon": -3.7052272}, {"type": "node", "id": 2505396739, "lat": 40.4177605, "lon": -3.7049228}, {"type": "node", "id": 2505396740, "lat": 40.4177996, "lon": -3.7048374}, {"type": "node", "id": 2505396742, "lat": 40.417804, "lon": -3.7049172}, {"type": "node", "id": 2505396757, "lat": 40.4181237, "lon": -3.7050892}, {"type": "node", "id": 2505404904, "lat": 40.4171233, "lon": -3.7034164, "tags": {"shop": "kiosk"}}, {"type": "node", "id": 2523695124, "lat": 40.4157877, "lon": -3.7076505, "tags": {"addr:city": "Madrid", "addr:housenumber": "26", "addr:postcode": "28012", "addr:street": "Plaza Mayor", "amenity": "restaurant", "cuisine": "regional", "name": "Bar Andal\u00fa La Torre del Oro", "website": "http://www.torredeloro.wellsoc.org/"}}, {"type": "node", "id": 2523695125, "lat": 40.4150004, "lon": -3.7068389, "tags": {"addr:city": "Madrid", "addr:housenumber": "2", "addr:postcode": "28012", "addr:street": "Plaza Mayor", "amenity": "restaurant", "name": "Bar Plaza Mayor"}}, {"type": "node", "id": 2523695126, "lat": 40.4149941, "lon": -3.7079475, "tags": {"addr:city": "Madrid", "addr:housenumber": "7", "addr:postcode": "28012", "addr:street": "Plaza Mayor", "amenity": "restaurant", "contact:phone": "+34 91 366 40 30", "contact:website": "http://www.gustosbcn.com/plaza-mayor/", "name": "Gustos", "old_name": "Gustos"}}, {"type": "node", "id": 2523695127, "lat": 40.4152228, "lon": -3.7065714, "tags": {"addr:city": "Madrid", "addr:housenumber": "35", "addr:postcode": "28012", "addr:street": "Plaza Mayor", "amenity": "restaurant", "name": "Liana 1962"}}, {"type": "node", "id": 2523695128, "lat": 40.4150063, "lon": -3.706646, "tags": {"addr:city": "Madrid", "addr:housenumber": "1", "addr:postcode": "28012", "addr:street": "Plaza Mayor", "amenity": "restaurant", "name": "Los Arcos"}}, {"type": "node", "id": 2523695130, "lat": 40.4153814, "lon": -3.7081082, "tags": {"addr:city": "Madrid", "addr:housenumber": "18", "addr:postcode": "28012", "addr:street": "Plaza Mayor", "amenity": "restaurant", "name": "Museo del Jam\u00f3n"}}, {"type": "node", "id": 2524787188, "lat": 40.4170809, "lon": -3.7073497, "tags": {"addr:city": "Madrid", "addr:housenumber": "11", "addr:postcode": "28013", "addr:street": "Calle de Bordadores", "amenity": "restaurant", "cuisine": "regional", "name": "La casa gallega \u0440\u0435\u0441\u0442\u043e\u0440\u0430\u043d \u042d\u0434\u0443\u0430\u0440\u0434\u0430", "wheelchair": "yes"}}, {"type": "node", "id": 2535776444, "lat": 40.4175802, "lon": -3.7038285, "tags": {"shop": "kiosk"}}, {"type": "node", "id": 2535776446, "lat": 40.4171142, "lon": -3.7036504, "tags": {"shop": "kiosk"}}, {"type": "node", "id": 2540726760, "lat": 40.4147835, "lon": -3.7082768, "tags": {"amenity": "restaurant", "cuisine": "regional", "name": "TragaTapas"}}, {"type": "node", "id": 2540726786, "lat": 40.4144541, "lon": -3.7046684}, {"type": "node", "id": 2540726791, "lat": 40.4144706, "lon": -3.7054262}, {"type": "node", "id": 2540726793, "lat": 40.4144772, "lon": -3.705449}, {"type": "node", "id": 2540726795, "lat": 40.4144916, "lon": -3.7054988}, {"type": "node", "id": 2540726799, "lat": 40.4145361, "lon": -3.7054782}, {"type": "node", "id": 2540726809, "lat": 40.4146546, "lon": -3.7053361}, {"type": "node", "id": 2544272006, "lat": 40.4125888, "lon": -3.6996872, "tags": {"addr:city": "Madrid", "addr:housenumber": "44", "addr:postcode": "28012", "addr:street": "Calle de Atocha", "amenity": "fast_food", "brand": "Burger King", "brand:wikidata": "Q177054", "brand:wikipedia": "es:Burger King", "cuisine": "asian;burger;japanese", "name": "Burger King", "name:en": "Take Wok", "name:es": "Take Wok", "old_name": "Burger King", "takeaway": "yes", "wheelchair": "limited"}}, {"type": "node", "id": 2546777613, "lat": 40.4122258, "lon": -3.6991251, "tags": {"amenity": "restaurant", "name": "Museo del Jam\u00f3n", "name:es": "Museo del Jam\u00f3n", "name:ru": "\u041c\u0443\u0437\u0435\u0439 \u0445\u0430\u043c\u043e\u043d\u0430", "name:zh": "\u706b\u817f\u535a\u7269\u9928\uff08\u963f\u6258\u67e5\u5e97\uff09", "opening_hours": "Mo-Sa 08:00-02:00", "wheelchair": "limited"}}, {"type": "node", "id": 2568767629, "lat": 40.4175905, "lon": -3.6978921, "tags": {"addr:city": "Madrid", "addr:country": "ES", "addr:housenumber": "7", "addr:postcode": "28014", "addr:street": "Calle de Los Madrazo", "amenity": "cafe", "name": "Los Pinchitos"}}, {"type": "node", "id": 2569444822, "lat": 40.4153953, "lon": -3.7092758, "tags": {"amenity": "fast_food", "name": "El sabor de mis recuerdos"}}, {"type": "node", "id": 2569444823, "lat": 40.4153727, "lon": -3.709051, "tags": {"amenity": "bar", "name": "El yantar de ayer"}}, {"type": "node", "id": 2569444826, "lat": 40.4197995, "lon": -3.6993966, "tags": {"addr:housenumber": "16", "addr:street": "Gran V\u00eda", "amenity": "restaurant", "cuisine": "american", "diet:vegetarian": "no", "name": "SteakBurger", "old_name": "Quilombo", "phone": "+34 914 21 92 50", "website": "http://www.steakburger.es"}}, {"type": "node", "id": 2569444827, "lat": 40.4166099, "lon": -3.7049244, "tags": {"addr:city": "Madrid", "addr:country": "ES", "addr:housenumber": "4", "addr:postcode": "28013", "addr:street": "Calle Mayor", "amenity": "fast_food", "name": "Wok to Walk", "takeaway": "yes"}}, {"type": "node", "id": 2579556465, "lat": 40.4211562, "lon": -3.7056049, "tags": {"addr:city": "Madrid", "addr:postcode": "28004", "addr:street": "Calle de los Tudescos", "amenity": "restaurant", "cuisine": "chinese", "name": "El Buda Feliz"}}, {"type": "node", "id": 2580708162, "lat": 40.4131961, "lon": -3.7085173, "tags": {"addr:city": "Madrid", "addr:housenumber": "12", "addr:postcode": "28005", "addr:street": "Calle de la Cava Baja", "amenity": "restaurant", "contact:phone": "+34 91 119 14 94", "contact:website": "http://www.posadadelleondeoro.com/es/eno/enotaberna.html", "name": "Posada del Le\u00f3n de Oro"}}, {"type": "node", "id": 2580726779, "lat": 40.4148126, "lon": -3.703678, "tags": {"addr:city": "Madrid", "addr:country": "ES", "addr:housenumber": "14", "addr:postcode": "28012", "addr:street": "Calle de Carretas", "amenity": "pub", "name": "La Sure\u00f1a"}}, {"type": "node", "id": 2583647344, "lat": 40.4208871, "lon": -3.7055728, "tags": {"addr:city": "Madrid", "addr:housenumber": "6", "addr:postcode": "28004", "addr:street": "Calle de Miguel Moya", "amenity": "restaurant", "cuisine": "japanese", "name": "Oishii Sushi & Ramen", "phone": "+34 915227574", "website": "http://www.oishiiramen.com/"}}, {"type": "node", "id": 2586616685, "lat": 40.416794, "lon": -3.7086095, "tags": {"addr:city": "Madrid", "addr:country": "ES", "addr:street": "Plaza de Herradores", "name": "Museo del Pan Gallego", "shop": "bakery"}}, {"type": "node", "id": 2586619868, "lat": 40.419408, "lon": -3.7074626, "tags": {"addr:city": "Madrid", "addr:housenumber": "4", "addr:postcode": "28013", "addr:street": "Calle de las Veneras", "amenity": "restaurant", "cuisine": "regional", "name": "El Labriego", "phone": "+34 91 559 24 07", "website": "https://ellabriego.es/"}}, {"type": "node", "id": 2586621896, "lat": 40.4197052, "lon": -3.7085243, "tags": {"addr:city": "Madrid", "addr:housenumber": "22", "addr:postcode": "28013", "addr:street": "Cuesta de Santo Domingo", "amenity": "pub", "name": "The Beer Station", "opening_hours": "10:00-03:00", "phone": "+34 91 547 27 48", "website": "http://www.beerstation.com/"}}, {"type": "node", "id": 2598598847, "lat": 40.4157706, "lon": -3.7022428, "tags": {"addr:city": "Madrid", "addr:housenumber": "7", "addr:postcode": "28012", "addr:street": "Calle de Espoz y Mina", "amenity": "pub", "contact:phone": "+34 91 522 2293", "contact:website": "http://oconnellirishpub.com/", "name": "O'Connell St."}}, {"type": "node", "id": 2600764140, "lat": 40.415335, "lon": -3.705741}, {"type": "node", "id": 2601026804, "lat": 40.4169883, "lon": -3.7043352}, {"type": "node", "id": 2601026805, "lat": 40.4170472, "lon": -3.704237}, {"type": "node", "id": 2601026818, "lat": 40.4171923, "lon": -3.7045573}, {"type": "node", "id": 2601026821, "lat": 40.4172784, "lon": -3.7042578}, {"type": "node", "id": 2601026822, "lat": 40.4172911, "lon": -3.7043086}, {"type": "node", "id": 2620439716, "lat": 40.4166921, "lon": -3.7007394}, {"type": "node", "id": 2620439718, "lat": 40.4167149, "lon": -3.7007263}, {"type": "node", "id": 2620439719, "lat": 40.4167219, "lon": -3.7012764}, {"type": "node", "id": 2620439720, "lat": 40.4167254, "lon": -3.7007189}, {"type": "node", "id": 2620439721, "lat": 40.416737, "lon": -3.7007095}, {"type": "node", "id": 2620439722, "lat": 40.4167483, "lon": -3.7006991}, {"type": "node", "id": 2620439723, "lat": 40.4167607, "lon": -3.700686}, {"type": "node", "id": 2620439724, "lat": 40.4167708, "lon": -3.7006737}, {"type": "node", "id": 2620439726, "lat": 40.4167911, "lon": -3.7006438}, {"type": "node", "id": 2620439727, "lat": 40.4168015, "lon": -3.7006247}, {"type": "node", "id": 2620439729, "lat": 40.4168158, "lon": -3.7005917}, {"type": "node", "id": 2620439730, "lat": 40.4168235, "lon": -3.7005682}, {"type": "node", "id": 2620439731, "lat": 40.4168288, "lon": -3.7005478}, {"type": "node", "id": 2620439732, "lat": 40.4168336, "lon": -3.7005232}, {"type": "node", "id": 2620439733, "lat": 40.4168361, "lon": -3.7005048}, {"type": "node", "id": 2620439734, "lat": 40.4168925, "lon": -3.7013004}, {"type": "node", "id": 2620439735, "lat": 40.4168942, "lon": -3.7012629}, {"type": "node", "id": 2620439737, "lat": 40.4169184, "lon": -3.7013038}, {"type": "node", "id": 2620439739, "lat": 40.4169206, "lon": -3.7012658}, {"type": "node", "id": 2620439745, "lat": 40.4169448, "lon": -3.7013071}, {"type": "node", "id": 2620439747, "lat": 40.4169505, "lon": -3.7012445}, {"type": "node", "id": 2620439751, "lat": 40.4169548, "lon": -3.7011964}, {"type": "node", "id": 2620439754, "lat": 40.4169596, "lon": -3.7011425}, {"type": "node", "id": 2620439756, "lat": 40.4169701, "lon": -3.7004051}, {"type": "node", "id": 2620439760, "lat": 40.4169807, "lon": -3.7011436}, {"type": "node", "id": 2620439762, "lat": 40.4169947, "lon": -3.7009743}, {"type": "node", "id": 2620439767, "lat": 40.4170123, "lon": -3.7009533}, {"type": "node", "id": 2620439769, "lat": 40.4170419, "lon": -3.7008388}, {"type": "node", "id": 2620439770, "lat": 40.4170445, "lon": -3.7005843}, {"type": "node", "id": 2620439773, "lat": 40.4170884, "lon": -3.7005933}, {"type": "node", "id": 2622900853, "lat": 40.4199561, "lon": -3.7054858, "tags": {"addr:city": "Madrid", "addr:housenumber": "3", "addr:postcode": "28013", "addr:street": "Plaza de Callao", "amenity": "fast_food", "brand": "Pans & Company", "brand:wikidata": "Q11697586", "brand:wikipedia": "es:Pans & Company", "cuisine": "sandwich", "name": "Pans & Company", "phone": "+34 915321712", "takeaway": "yes", "website": "http://www.pansandcompany.com/"}}, {"type": "node", "id": 2627203603, "lat": 40.4205066, "lon": -3.6988299, "tags": {"addr:city": "Madrid", "addr:housenumber": "13", "addr:postcode": "28004", "addr:street": "Calle de las Infantas", "amenity": "bar", "contact:website": "http://maskcopas.com/", "name": "+ K Copas", "old_name": "Pizzer\u00eda Casavostra"}}, {"type": "node", "id": 2627770556, "lat": 40.417043, "lon": -3.7044597}, {"type": "node", "id": 2627770567, "lat": 40.4170893, "lon": -3.7044899}, {"type": "node", "id": 2631116903, "lat": 40.4198397, "lon": -3.7081399, "tags": {"addr:city": "Madrid", "addr:housenumber": "15", "addr:postcode": "28013", "addr:street": "Costanilla de los \u00c1ngeles", "amenity": "restaurant", "name": "Dehesa Santa Mar\u00eda", "website": "http://www.dehesasantamaria.com/"}}, {"type": "node", "id": 2631123715, "lat": 40.4156971, "lon": -3.7086187}, {"type": "node", "id": 2631124674, "lat": 40.4156264, "lon": -3.7084029, "tags": {"addr:city": "Madrid", "addr:housenumber": "5", "addr:postcode": "28012", "addr:street": "Calle Ciudad Rodrigo", "amenity": "restaurant", "cuisine": "regional", "name": "Valle del Ti\u00e9tar"}}, {"type": "node", "id": 2631126575, "lat": 40.4156141, "lon": -3.7083143, "tags": {"addr:city": "Madrid", "addr:housenumber": "3", "addr:postcode": "28012", "addr:street": "Calle Ciudad Rodrigo", "amenity": "restaurant", "cuisine": "regional", "name": "Casa R\u00faa"}}, {"type": "node", "id": 2631128250, "lat": 40.4157731, "lon": -3.7080496, "tags": {"addr:city": "Madrid", "addr:housenumber": "23", "addr:postcode": "28012", "addr:street": "Plaza Mayor", "amenity": "restaurant", "email": "centraldereservas@madriddiezsobrediez.es", "name": "CasaMar\u00eda", "phone": "+34 91 559 10 07", "website": "http://www.casamariaplazamayor.es/"}}, {"type": "node", "id": 2631130966, "lat": 40.4155385, "lon": -3.7081543, "tags": {"addr:city": "Madrid", "addr:housenumber": "22", "addr:postcode": "28012", "addr:street": "Plaza Mayor", "amenity": "restaurant", "cuisine": "regional", "name": "Cafeter\u00eda Magerit"}}, {"type": "node", "id": 2631133125, "lat": 40.4151057, "lon": -3.7080819, "tags": {"addr:city": "Madrid", "addr:housenumber": "14", "addr:postcode": "28012", "addr:street": "Plaza Mayor", "amenity": "restaurant", "name": "Bar Tineo"}}, {"type": "node", "id": 2631133126, "lat": 40.4150447, "lon": -3.7080835, "tags": {"addr:city": "Madrid", "addr:housenumber": "13", "addr:postcode": "28012", "addr:street": "Plaza Mayor", "amenity": "restaurant", "name": "Caf\u00e9 Zarra"}}, {"type": "node", "id": 2631134831, "lat": 40.4150064, "lon": -3.7076962, "tags": {"addr:city": "Madrid", "addr:housenumber": "4-5", "addr:postcode": "28012", "addr:street": "Plaza Mayor", "amenity": "restaurant", "cuisine": "regional", "name": "Cervecer\u00eda \u00c9boli", "phone": "+34 913659341", "website": "http://www.restauranteebolicerveceria.es/es/"}}, {"type": "node", "id": 2632245313, "lat": 40.4203785, "lon": -3.7080769, "tags": {"addr:city": "Madrid", "addr:housenumber": "2", "addr:postcode": "28013", "addr:street": "Calle de Silva", "amenity": "restaurant", "name": "Cafeter\u00eda Oskar"}}, {"type": "node", "id": 2632245314, "lat": 40.4203546, "lon": -3.7079386, "tags": {"addr:city": "Madrid", "addr:postcode": "28013", "addr:street": "Calle de Jacometrezo", "amenity": "restaurant", "name": "Domingo's"}}, {"type": "node", "id": 2632252636, "lat": 40.420085, "lon": -3.7078849, "tags": {"addr:city": "Madrid", "addr:housenumber": "15", "addr:postcode": "28013", "addr:street": "Calle de Jacometrezo", "amenity": "restaurant", "cuisine": "regional", "name": "O' Faro Finisterre", "opening_hours": "09:00-21:00", "phone": "+34 915 47 42 40", "smoking": "no", "website": "http://www.ofarofinisterre.es/"}}, {"type": "node", "id": 2632252642, "lat": 40.4200045, "lon": -3.7078402, "tags": {"addr:city": "Madrid", "addr:housenumber": "15", "addr:postcode": "28013", "addr:street": "Calle de Jacometrezo", "amenity": "restaurant", "cuisine": "regional", "name": "La Abad\u00eda", "opening_hours": "Mo-Su 7:00 - 5:00", "smoking": "no"}}, {"type": "node", "id": 2632252650, "lat": 40.4199733, "lon": -3.7078185, "tags": {"addr:city": "Madrid", "addr:housenumber": "15", "addr:postcode": "28013", "addr:street": "Calle de Jacometrezo", "amenity": "restaurant", "cuisine": "kebab", "name": "Shisha", "old_name": "Kebapmania"}}, {"type": "node", "id": 2632252656, "lat": 40.4198879, "lon": -3.7077439, "tags": {"addr:city": "Madrid", "addr:housenumber": "50", "addr:postcode": "28013", "addr:street": "Calle Preciados", "amenity": "restaurant", "cuisine": "italian", "name": "Topolino", "phone": "+34 91 542 55 55", "website": "http://www.topolino.es/"}}, {"type": "node", "id": 2632260876, "lat": 40.4197098, "lon": -3.707584, "tags": {"addr:city": "Madrid", "addr:housenumber": "37", "addr:postcode": "28013", "addr:street": "Calle Preciados", "amenity": "restaurant", "name": "Caf\u00e9 Varela", "phone": "+34 91 454 44 00", "website": "http://www.cafevarela.com/", "wheelchair": "no"}}, {"type": "node", "id": 2632261940, "lat": 40.4194843, "lon": -3.7076302, "tags": {"addr:city": "Madrid", "addr:housenumber": "7", "addr:postcode": "28013", "addr:street": "Calle de las Veneras", "amenity": "restaurant", "name": "Bar La Alegr\u00eda"}}, {"type": "node", "id": 2632261941, "lat": 40.4194578, "lon": -3.7076176, "tags": {"addr:city": "Madrid", "addr:housenumber": "7", "addr:postcode": "28013", "addr:street": "Calle de las Veneras", "alt_name": "Atlantic", "amenity": "restaurant", "cuisine": "regional", "name": "Don Bacalao", "old_name": "Mes\u00f3n El Ga\u00f1\u00e1n"}}, {"type": "node", "id": 2632263192, "lat": 40.4193115, "lon": -3.7075029, "tags": {"addr:city": "Madrid", "addr:housenumber": "3", "addr:postcode": "28013", "addr:street": "Calle de las Veneras", "amenity": "restaurant", "cuisine": "regional", "name": "Mareas Vivas"}}, {"type": "node", "id": 2632268091, "lat": 40.416244, "lon": -3.7080184, "tags": {"addr:city": "Madrid", "addr:housenumber": "2", "addr:postcode": "28013", "addr:street": "Calle de San Felipe Neri", "name": "La Caja de Vinos", "phone": "+34 910325175", "shop": "alcohol", "website": "https://lacajadevinos.com/"}}, {"type": "node", "id": 2632277332, "lat": 40.4186679, "lon": -3.7071852, "tags": {"addr:city": "Madrid", "addr:housenumber": "2", "addr:postcode": "28013", "addr:street": "Traves\u00eda de los Trujillos", "amenity": "restaurant", "name": "Esencia al Cuadrado", "old_name": "La T\u00e1bula de las Descalzas", "old_name_1": "Vargas 83", "phone": "+34 910 530 873", "website": "https://www.esenciaalcuadrado.es/"}}, {"type": "node", "id": 2638934279, "lat": 40.4133029, "lon": -3.6990756, "tags": {"addr:city": "Madrid", "addr:country": "ES", "addr:housenumber": "23", "addr:postcode": "28014", "addr:street": "Calle del Le\u00f3n", "amenity": "restaurant", "contact:facebook": "https://www.facebook.com/RestauranteLaDamaBoba/", "name": "La Dama Boba", "old_name": "Navalosa"}}, {"type": "node", "id": 2639172447, "lat": 40.4128937, "lon": -3.7083362, "tags": {"addr:city": "Madrid", "addr:housenumber": "7", "addr:postcode": "28005", "addr:street": "Calle Grafal", "amenity": "restaurant", "cuisine": "madrile\u00f1a", "name": "Taberna del Capit\u00e1n Alatriste", "opening_hours": "Tu-Su 13:00-16:00,20:00-24:00", "phone": "+34 913 66 18 83", "website": "http://tabernadelcapitanalatriste.com/"}}, {"type": "node", "id": 2639608412, "lat": 40.4177056, "lon": -3.7093085, "tags": {"addr:city": "Madrid", "addr:housenumber": "1", "addr:postcode": "28013", "addr:street": "Plaza de Isabel II", "amenity": "restaurant", "cuisine": "regional", "name": "Asador Real", "phone": "+34 91 547 1111", "website": "http://www.asadorreal.com/"}}, {"type": "node", "id": 2643887892, "lat": 40.4185756, "lon": -3.7071306, "tags": {"addr:city": "Madrid", "addr:housenumber": "1", "addr:postcode": "28013", "addr:street": "Traves\u00eda de los Trujillos", "amenity": "cafe", "contact:facebook": "https://www.facebook.com/Teter%C3%ADa-Dubai-216458342114116/?ref=page_internal", "contact:phone": "+34 689 04 45 32", "name": "Teter\u00eda Dubai", "old_name": "Alhama"}}, {"type": "node", "id": 2643887893, "lat": 40.4183956, "lon": -3.7075337, "tags": {"addr:city": "Madrid", "addr:housenumber": "3", "addr:postcode": "28013", "addr:street": "Calle de los Trujillos", "amenity": "restaurant", "name": "Califa", "operator": "arabian", "phone": "+34 91 5599360", "website": "http://www.califamadrid.com/"}}, {"type": "node", "id": 2643887894, "lat": 40.4188884, "lon": -3.7073543, "tags": {"addr:city": "Madrid", "addr:postcode": "28013", "addr:street": "Calle de los Trujillos", "amenity": "restaurant", "cuisine": "regional", "name": "Casa Parrondo", "opening_hours": "We 13:00-16:00,20:00-24:00", "phone": "+34 915 22 62 34", "website": "http://www.casaparrondo.com/"}}, {"type": "node", "id": 2643887895, "lat": 40.4189847, "lon": -3.7074466, "tags": {"addr:city": "Madrid", "addr:housenumber": "9", "addr:postcode": "28013", "addr:street": "Calle de los Trujillos", "amenity": "restaurant", "contact:facebook": "https://es-es.facebook.com/pages/Casa-Vali%C3%B1o-Restaurante/155256191312816", "cuisine": "regional", "name": "Casa Vali\u00f1o", "opening_hours": "Mo-Sa 10:00-1:00", "phone": "+34 915 47 30 58"}}, {"type": "node", "id": 2643887896, "lat": 40.4190184, "lon": -3.707335, "tags": {"addr:city": "Madrid", "addr:housenumber": "9", "addr:postcode": "28013", "addr:street": "Calle de las Navas de Tolosa", "amenity": "restaurant", "cuisine": "noodle", "name": "Igo Ramen", "old_name": "El Jabugo"}}, {"type": "node", "id": 2643887898, "lat": 40.4187834, "lon": -3.7074757, "tags": {"addr:city": "Madrid", "addr:housenumber": "7", "addr:postcode": "28013", "addr:street": "Calle de los Trujillos", "amenity": "restaurant", "cuisine": "regional", "name": "El Zagal", "phone": "+34 915420557", "website": "http://www.elzagalmadrid.com/HOME.html"}}, {"type": "node", "id": 2643887902, "lat": 40.418605, "lon": -3.7075016, "tags": {"addr:city": "Madrid", "addr:housenumber": "7", "addr:postcode": "28013", "addr:street": "Calle de los Trujillos", "amenity": "bar", "lgbtq": "primary", "name": "Strong", "opening_hours": "Mo-Fr 23:30-06:00; Sa-Su 23:30-06:00", "phone": "+34915415415", "website": "http://www.strong-center.com/Strong.html"}}, {"type": "node", "id": 2643893663, "lat": 40.4177572, "lon": -3.7076556, "tags": {"addr:city": "Madrid", "addr:housenumber": "17", "addr:postcode": "28013", "addr:street": "Calle de las Hileras", "amenity": "restaurant", "cuisine": "regional", "email": "escarpinsidreria@hotmail.com", "name": "El Escarp\u00edn", "phone": "+34 91 559 99 57", "website": "https://www.restaurante-sidreria-elescarpin.com/es/"}}, {"type": "node", "id": 2643893669, "lat": 40.4179885, "lon": -3.7074756, "tags": {"addr:city": "Madrid", "addr:housenumber": "19", "addr:postcode": "28013", "addr:street": "Calle de las Hileras", "amenity": "bar", "contact:facebook": "https://es-es.facebook.com/pages/La-Canela-Caf%C3%A9-Bar/135455503177789", "name": "La Canela", "opening_hours": "Mo-Su 16:00-02:00", "phone": "+34 915 59 55 32"}}, {"type": "node", "id": 2643893685, "lat": 40.4176751, "lon": -3.7076269, "tags": {"addr:city": "Madrid", "addr:housenumber": "14", "addr:postcode": "28013", "addr:street": "Calle de las Hileras", "amenity": "bar", "email": "discosyunke@gmail.com", "name": "La Coquette", "phone": "+34 915 210 915"}}, {"type": "node", "id": 2643911157, "lat": 40.4172132, "lon": -3.7080127, "tags": {"addr:city": "Madrid", "addr:housenumber": "8", "addr:postcode": "28013", "addr:street": "Calle de las Hileras", "amenity": "bar", "old_name": "Caf\u00e9 Iru\u00f1a"}}, {"type": "node", "id": 2643911162, "lat": 40.4170061, "lon": -3.7081921, "tags": {"addr:city": "Madrid", "addr:housenumber": "6", "addr:postcode": "28013", "addr:street": "Calle de las Hileras", "amenity": "restaurant", "contact:facebook": "https://es-es.facebook.com/elcogollo2013/", "contact:phone": "+34 911 96 03 51", "cuisine": "regional", "name": "El Cogollo de la Descarga", "old_name": "Cervecer\u00eda Hileras", "old_name_1": "Sombrero Azul"}}, {"type": "node", "id": 2643911166, "lat": 40.4173148, "lon": -3.7080652, "tags": {"addr:city": "Madrid", "addr:housenumber": "9", "addr:postcode": "28013", "addr:street": "Calle de las Hileras", "amenity": "cafe", "name": "Colors Coffee Shop"}}, {"type": "node", "id": 2643911169, "lat": 40.4170477, "lon": -3.7082922, "tags": {"addr:city": "Madrid", "addr:housenumber": "5", "addr:postcode": "28013", "addr:street": "Calle de las Hileras", "amenity": "restaurant", "cuisine": "mexican", "name": "Taquer\u00eda Mi Ciudad", "phone": "+34 915598711", "website": "http://www.taqueriamiciudad.com/"}}, {"type": "node", "id": 2647375155, "lat": 40.414926, "lon": -3.7012268, "tags": {"addr:city": "Madrid", "addr:housenumber": "1", "addr:postcode": "28012", "addr:street": "Plaza de Santa Ana", "amenity": "restaurant", "cuisine": "regional", "name": "Zahara", "old_name": "Mes\u00f3n 5 Jotas", "wheelchair": "yes"}}, {"type": "node", "id": 2647375160, "lat": 40.4151263, "lon": -3.7014088, "tags": {"addr:city": "Madrid", "addr:housenumber": "9", "addr:postcode": "28012", "addr:street": "Calle de \u00c1lvarez Gato", "amenity": "restaurant", "cuisine": "regional", "name": "Taberna Fragua de Vulcano", "opening_hours": "Su-Th 12:00-01:30, Fr,Sa 12:00-02:00", "phone": "+34 915 22 36 05", "website": "http://www.fraguadevulcano.com/", "wheelchair": "no", "wheelchair:description": "High threshold at entrance. No outside tables."}}, {"type": "node", "id": 2647379650, "lat": 40.4147404, "lon": -3.7014786, "tags": {"addr:city": "Madrid", "addr:housenumber": "15", "addr:postcode": "28012", "addr:street": "Plaza de Santa Ana", "amenity": "restaurant", "cuisine": "regional", "name": "Villa Rosa", "name:ru": "\u041e\u0442\u0434\u044b\u0445", "phone": "+34 5213689", "website": "https://www.tablaoflamencovillarosa.com/es/", "wikidata": "Q30086996"}}, {"type": "node", "id": 2647385671, "lat": 40.4151538, "lon": -3.7019713, "tags": {"addr:city": "Madrid", "addr:housenumber": "3", "addr:postcode": "28012", "addr:street": "Calle de \u00c1lvarez Gato", "amenity": "restaurant", "cuisine": "regional", "name": "Las Bravas", "phone": "+34 91 522 85 81", "website": "https://lasbravas.com/"}}, {"type": "node", "id": 2651748584, "lat": 40.4210238, "lon": -3.7055614, "tags": {"addr:city": "Madrid", "addr:postcode": "28004", "addr:street": "Calle de Miguel Moya", "amenity": "restaurant", "contact:website": "http://www.suryarestaurants.com/", "name": "Surya", "old_name": "Foodland", "old_name_1": "Eneri"}}, {"type": "node", "id": 2651748585, "lat": 40.4211294, "lon": -3.7054495, "tags": {"addr:city": "Madrid", "addr:housenumber": "4", "addr:postcode": "28004", "addr:street": "Calle de los Tudescos", "amenity": "bar", "name": "Next Level", "old_name": "Mind The Gap", "old_name_1": "Changes", "old_name_2": "2 Cero 5", "opening_hours": "Su-Th 18:00-01:00; Fr-Sa 18:00-03:00", "wheelchair": "limited", "wheelchair:description": "Sin escalones (interior desconocido). Puerta de 87 cm"}}, {"type": "node", "id": 2655900793, "lat": 40.420727, "lon": -3.705586, "tags": {"addr:city": "Madrid", "addr:housenumber": "4", "addr:postcode": "28004", "addr:street": "Calle de Miguel Moya", "amenity": "restaurant", "cuisine": "regional", "name": "La Prensa"}}, {"type": "node", "id": 2655919909, "lat": 40.4192126, "lon": -3.706068, "tags": {"addr:city": "Madrid", "addr:housenumber": "6", "addr:postcode": "28013", "addr:street": "Calle del Postigo de San Mart\u00edn", "amenity": "restaurant", "email": "restaurante@cucuruchodelmar.com", "name": "El Cucurucho del Mar", "phone": "+34 915220895", "website": "http://www.cucuruchodelmar.com/"}}, {"type": "node", "id": 2656003471, "lat": 40.417628, "lon": -3.7069147, "tags": {"addr:city": "Madrid", "addr:housenumber": "2", "addr:postcode": "28013", "addr:street": "Calle de San Mart\u00edn", "amenity": "cafe", "name": "Los Artesanos 1902", "phone": "+34 91 522 57 37", "website": "https://www.losartesanos1902.com/"}}, {"type": "node", "id": 2656003482, "lat": 40.4176632, "lon": -3.7070637, "tags": {"addr:city": "Madrid", "addr:housenumber": "3", "addr:postcode": "28013", "addr:street": "Calle de San Mart\u00edn", "amenity": "restaurant", "contact:phone": "+34 910 595 881", "contact:website": "https://madridgrill.com/", "name": "Madrid Grill", "old_name": "Rinc\u00f3n de Roque"}}, {"type": "node", "id": 2656033535, "lat": 40.4164558, "lon": -3.7077761, "tags": {"addr:city": "Madrid", "addr:housenumber": "5", "addr:postcode": "28013", "addr:street": "Calle de Bordadores", "amenity": "bar", "name": "La Panoya"}}, {"type": "node", "id": 2656033536, "lat": 40.4165193, "lon": -3.7077263, "tags": {"addr:city": "Madrid", "addr:housenumber": "5", "addr:postcode": "28013", "addr:street": "Calle de Bordadores", "amenity": "restaurant", "cuisine": "regional", "name": "Mes\u00f3n Gregorio III", "phone": "+34 91 542 59 56", "website": "http://www.mesongregorioiii.es/"}}, {"type": "node", "id": 2656033537, "lat": 40.4167991, "lon": -3.707515, "tags": {"addr:city": "Madrid", "addr:housenumber": "7", "addr:postcode": "28013", "addr:street": "Calle de Bordadores", "amenity": "restaurant", "cuisine": "korean", "name": "Gayagum"}}, {"type": "node", "id": 2656033538, "lat": 40.4169151, "lon": -3.7074425, "tags": {"addr:city": "Madrid", "addr:housenumber": "9", "addr:postcode": "28013", "addr:street": "Calle de Bordadores", "amenity": "fast_food", "contact:facebook": "https://es-la.facebook.com/pages/Sindibad-Kebab-Caf%C3%A9-y-T%C3%A9/130092557051531", "cuisine": "kebab", "name": "Sindibad"}}, {"type": "node", "id": 2656038561, "lat": 40.4165263, "lon": -3.7075762, "tags": {"addr:city": "Madrid", "addr:housenumber": "4", "addr:postcode": "28013", "addr:street": "Calle de Bordadores", "amenity": "bar", "name": "Lion"}}, {"type": "node", "id": 2656038566, "lat": 40.4162932, "lon": -3.7079068, "tags": {"addr:city": "Madrid", "addr:housenumber": "1", "addr:postcode": "28013", "addr:street": "Calle de Bordadores", "email": "info@grupoalgar.com", "name": "Los Andes", "phone": "+34 91 541 12 70", "shop": "deli", "website": "http://www.grupoalgar.com/tienda_bordadores.php"}}, {"type": "node", "id": 2656051906, "lat": 40.4157824, "lon": -3.7066073, "tags": {"addr:city": "Madrid", "addr:housenumber": "30", "addr:postcode": "28012", "addr:street": "Plaza Mayor", "amenity": "restaurant", "cuisine": "regional", "name": "Caf\u00e9 & Tapas"}}, {"type": "node", "id": 2656051910, "lat": 40.4155635, "lon": -3.7065987, "tags": {"addr:city": "Madrid", "addr:housenumber": "33", "addr:postcode": "28013", "addr:street": "Plaza Mayor", "amenity": "restaurant", "cuisine": "regional", "name": "El Soportal"}}, {"type": "node", "id": 2656069323, "lat": 40.415034, "lon": -3.7064705, "tags": {"addr:city": "Madrid", "addr:housenumber": "1", "addr:postcode": "28012", "addr:street": "Plaza Mayor", "amenity": "restaurant", "cuisine": "regional", "name": "abanda", "old_name": "Casa Carmen"}}, {"type": "node", "id": 2656069329, "lat": 40.4128599, "lon": -3.6994021, "tags": {"addr:city": "Madrid", "addr:housenumber": "32", "addr:postcode": "28014", "addr:street": "Calle del Le\u00f3n", "name": "M\u00e1s Que Cervezas", "opening_hours": "Mo-Su 11:30-22:00", "phone": "+34 645 75 40 03", "real_ale": "yes", "shop": "alcohol", "website": "https://www.masquecervezas.es/"}}, {"type": "node", "id": 2656069336, "lat": 40.4151284, "lon": -3.7063631, "tags": {"addr:city": "Madrid", "addr:housenumber": "4", "addr:postcode": "28012", "addr:street": "Calle de Gerona", "amenity": "bar", "name": "Plaza Mayor"}}, {"type": "node", "id": 2657233346, "lat": 40.4198093, "lon": -3.708289, "tags": {"addr:city": "Madrid", "addr:housenumber": "24", "addr:postcode": "28013", "addr:street": "Cuesta de Santo Domingo", "amenity": "restaurant", "contact:facebook": "https://www.facebook.com/sublimetokyoes/info/?tab=overview", "cuisine": "japanese", "name": "Sublime Tokyo", "old_name": "The Peruvian Kitchen", "phone": "+34 91 559 30 65"}}, {"type": "node", "id": 2665094817, "lat": 40.4210317, "lon": -3.6998293, "tags": {"addr:city": "Madrid", "addr:country": "ES", "addr:housenumber": "1", "addr:postcode": "28004", "addr:street": "Plaza de Pedro Zerolo", "addr:subdistrict": "Justicia", "amenity": "restaurant", "cuisine": "regional", "name": "La Sacrist\u00eda", "phone": "+34 91 522 09 45", "website": "http://www.la-sacristia.es/"}}, {"type": "node", "id": 2683390837, "lat": 40.414785, "lon": -3.7035258, "tags": {"addr:city": "Madrid", "addr:housenumber": "14", "addr:postcode": "28012", "addr:street": "Calle de Carretas", "amenity": "restaurant", "cuisine": "regional", "name": "Caf\u00e9 & Tapas"}}, {"type": "node", "id": 2683390840, "lat": 40.4140049, "lon": -3.7011129, "tags": {"addr:city": "Madrid", "addr:housenumber": "4", "addr:postcode": "28012", "addr:street": "Calle de las Huertas", "amenity": "restaurant", "cuisine": "vietnamese", "name": "Viet Nam", "phone": "+34 917 55 31 26", "website": "http://vietnamrestaurante.es/"}}, {"type": "node", "id": 2683390841, "lat": 40.4140557, "lon": -3.7008814, "tags": {"addr:city": "Madrid", "addr:housenumber": "9", "addr:postcode": "28012", "addr:street": "Calle de las Huertas", "name": "Ricci", "shop": "ice_cream", "website": "https://www.heladeriaricci.com/"}}, {"type": "node", "id": 2683390843, "lat": 40.4131803, "lon": -3.6982035, "tags": {"addr:city": "Madrid", "addr:housenumber": "3", "addr:postcode": "28014", "addr:street": "Calle Amor de Dios", "amenity": "restaurant", "craft": "caterer", "diet:vegan": "yes", "diet:vegetarian": "only", "name": "La Biotika", "phone": "+34 914 29 07 80", "takeaway": "yes", "website": "http://www.labiotika.es/"}}, {"type": "node", "id": 2689639399, "lat": 40.4203968, "lon": -3.7081874, "tags": {"shop": "kiosk"}}, {"type": "node", "id": 2689676547, "lat": 40.4187322, "lon": -3.7082032, "tags": {"addr:city": "Madrid", "addr:housenumber": "8", "addr:postcode": "28013", "addr:street": "Costanilla de los \u00c1ngeles", "amenity": "restaurant", "cuisine": "regional", "name": "El Pato Mudo"}}, {"type": "node", "id": 2689676550, "lat": 40.4180846, "lon": -3.7084812, "tags": {"brand": "Suma", "brand:wikidata": "Q58012362", "name": "Suma", "old_name": "Proxim", "shop": "supermarket"}}, {"type": "node", "id": 2689693249, "lat": 40.41681, "lon": -3.7087404, "tags": {"addr:city": "Madrid", "addr:housenumber": "1", "addr:postcode": "28013", "addr:street": "Calle de las Fuentes", "amenity": "restaurant", "name": "Iris", "old_name": "La Alberca"}}, {"type": "node", "id": 2689693250, "lat": 40.4169483, "lon": -3.7087607, "tags": {"addr:city": "Madrid", "addr:housenumber": "3", "addr:postcode": "28013", "addr:street": "Calle de las Fuentes", "amenity": "restaurant", "cuisine": "mexican", "name": "La Mordida", "opening_hours": "Su-Th 13:30-00:30; Fr-Sa 13:30-01:30", "phone": "+34 91 5591136", "website": "http://www.lamordida.com/web/sample-page/la-mordida-de-fuentes/"}}, {"type": "node", "id": 2689693253, "lat": 40.4173759, "lon": -3.7087076, "tags": {"addr:city": "Madrid", "addr:housenumber": "11", "addr:postcode": "28013", "addr:street": "Calle de las Fuentes", "amenity": "restaurant", "cuisine": "mexican", "name": "Taquer\u00eda Mi Ciudad", "phone": "+34 608621096", "website": "http://www.taqueriamiciudad.com/"}}, {"type": "node", "id": 2689693259, "lat": 40.416651, "lon": -3.7087203, "tags": {"addr:city": "Madrid", "addr:housenumber": "7", "addr:postcode": "28013", "addr:street": "Plaza de Herradores", "amenity": "restaurant", "contact:phone": "+34 91 0411 646", "contact:website": "http://www.kuraya.es/index.html", "cuisine": "japanese", "name": "Kuraya", "old_name": "Donde Pablo", "old_name_1": "alComp\u00e1s", "opening_hours": "PH,Mo-Su 13:00-16:00,20:30-23:30"}}, {"type": "node", "id": 2689693265, "lat": 40.4174176, "lon": -3.7079791, "tags": {"addr:city": "Madrid", "addr:housenumber": "9", "addr:postcode": "28013", "addr:street": "Calle de las Hileras", "amenity": "pub", "contact:facebook": "https://es-la.facebook.com/pages/PUB-DREAMS/98164402903", "name": "Dreams"}}, {"type": "node", "id": 2689693281, "lat": 40.4174275, "lon": -3.7078346, "tags": {"addr:city": "Madrid", "addr:housenumber": "12", "addr:postcode": "28013", "addr:street": "Calle de las Hileras", "amenity": "restaurant", "cuisine": "moroccan", "name": "Marrakech", "old_name": "Doce"}}, {"type": "node", "id": 2694452206, "lat": 40.4206267, "lon": -3.7077297, "tags": {"addr:city": "Madrid", "addr:housenumber": "4", "addr:postcode": "28013", "addr:street": "Calle de Silva", "amenity": "restaurant", "name": "Larios Caf\u00e9", "phone": "+34 915479394", "website": "http://www.larioscafe.com/"}}, {"type": "node", "id": 2694452207, "lat": 40.4206008, "lon": -3.707832, "tags": {"addr:city": "Madrid", "addr:housenumber": "4", "addr:postcode": "28013", "addr:street": "Calle de Silva", "amenity": "bar", "name": "Tanka's"}}, {"type": "node", "id": 2694452208, "lat": 40.420575, "lon": -3.7079302, "tags": {"addr:city": "Madrid", "addr:housenumber": "2", "addr:postcode": "28013", "addr:street": "Calle de Silva", "amenity": "restaurant", "contact:phone": "+34 91 138 9707", "contact:website": "http://www.tayta.es/", "cuisine": "peruvian", "name": "Tayta Chicken Grill & Wok", "old_name": "De Prado"}}, {"type": "node", "id": 2694452210, "lat": 40.4208962, "lon": -3.7072848, "tags": {"addr:city": "Madrid", "addr:housenumber": "45", "addr:postcode": "28013", "addr:street": "Gran V\u00eda", "amenity": "fast_food", "brand": "Carl's Jr.", "brand:wikidata": "Q1043486", "brand:wikipedia": "en:Carl's Jr.", "contact:phone": "+34 918966378", "contact:website": "http://carlsjr.es/", "cuisine": "burger", "name": "Carl's Jr.", "old_name": "All U Can Eat", "opening_hours": "Su-Th 12:30-00:00; Fr-Sa 12:30-01:00", "takeaway": "yes"}}, {"type": "node", "id": 2694514293, "lat": 40.4211664, "lon": -3.7077074, "tags": {"addr:city": "Madrid", "addr:housenumber": "49", "addr:postcode": "28013", "addr:street": "Gran V\u00eda", "contact:website": "http://www.borgonesse.com/", "name": "Borgonesse", "old_name": "Bolsos Rustarazo", "shop": "ice_cream"}}, {"type": "node", "id": 2694514298, "lat": 40.4194215, "lon": -3.707104, "tags": {"addr:city": "Madrid", "addr:housenumber": "4", "addr:postcode": "28013", "addr:street": "Calle de la Ternera", "amenity": "restaurant", "cuisine": "cuban", "name": "Cuando Sal\u00ed de Cuba"}}, {"type": "node", "id": 2694514302, "lat": 40.4191439, "lon": -3.7065685, "tags": {"addr:city": "Madrid", "addr:housenumber": "3", "addr:postcode": "28013", "addr:street": "Calle de las Navas de Tolosa", "amenity": "restaurant", "cuisine": "regional", "name": "A Mi\u00f1a Gaita"}}, {"type": "node", "id": 2694514303, "lat": 40.4191521, "lon": -3.7066922, "tags": {"addr:city": "Madrid", "addr:housenumber": "3", "addr:postcode": "28013", "addr:street": "Calle de las Navas de Tolosa", "amenity": "cafe", "email": "info@abonavida.com", "name": "Abonavida", "phone": "+34 91 522 98 60", "shop": "yes", "website": "http://www.abonavida.com/"}}, {"type": "node", "id": 2694514304, "lat": 40.4191304, "lon": -3.7069475, "tags": {"addr:city": "Madrid", "addr:housenumber": "7", "addr:postcode": "28013", "addr:street": "Calle de las Navas de Tolosa", "amenity": "restaurant", "contact:phone": "+34 910 582 073", "contact:website": "http://lachamana.es/", "cuisine": "mexican", "name": "La Chamana", "old_name": "London Caf\u00e9", "old_name_1": "El Salero"}}, {"type": "node", "id": 2694514305, "lat": 40.419116, "lon": -3.7070473, "tags": {"addr:city": "Madrid", "addr:housenumber": "7", "addr:postcode": "28013", "addr:street": "Calle de las Navas de Tolosa", "amenity": "bar", "name": "Vi\u00f1a"}}, {"type": "node", "id": 2694514307, "lat": 40.4191032, "lon": -3.7071367, "tags": {"addr:city": "Madrid", "addr:housenumber": "9", "addr:postcode": "28013", "addr:street": "Calle de las Navas de Tolosa", "amenity": "restaurant", "cuisine": "international", "email": "cornucopia@restaurantecornucopia.com", "name": "Cornucopia", "phone": "+34 91 521 38 96", "website": "http://www.restaurantecornucopia.com/"}}, {"type": "node", "id": 2694514309, "lat": 40.4173248, "lon": -3.7060621, "tags": {"addr:city": "Madrid", "addr:housenumber": "1", "addr:postcode": "28013", "addr:street": "Plaza de Celenque", "amenity": "restaurant", "cuisine": "regional", "name": "Taberna los 4 Robles"}}, {"type": "node", "id": 2696236497, "lat": 40.4195384, "lon": -3.7079635, "tags": {"addr:city": "Madrid", "addr:housenumber": "20", "addr:postcode": "28013", "addr:street": "Costanilla de los \u00c1ngeles", "amenity": "cafe", "name": "Caf\u00e9 Berl\u00edn", "old_name": "We Rock", "phone": "+34 91 5597 429", "website": "http://berlincafe.es/"}}, {"type": "node", "id": 2696236498, "lat": 40.4194748, "lon": -3.7079939, "tags": {"addr:city": "Madrid", "addr:housenumber": "18", "addr:postcode": "28013", "addr:street": "Costanilla de los \u00c1ngeles", "amenity": "restaurant", "cuisine": "indian", "name": "Himalaya", "name:ar": "\u0645\u0637\u0639\u0645 \u0647\u064a\u0645\u0627\u0644\u0627\u064a\u0627", "phone": "+34 915591142", "website": "http://www.restaurantehimalaya.com/index_netscape.htm"}}, {"type": "node", "id": 2696236499, "lat": 40.4189491, "lon": -3.7082735, "tags": {"addr:city": "Madrid", "addr:housenumber": "9", "addr:postcode": "28013", "addr:street": "Calle Costanilla de los \u00c1ngeles", "amenity": "bar", "name": "La Galer\u00eda"}}, {"type": "node", "id": 2696236500, "lat": 40.4189322, "lon": -3.7081204, "tags": {"addr:city": "Madrid", "addr:housenumber": "12", "addr:postcode": "28013", "addr:street": "Calle Costanilla de los \u00c1ngeles", "amenity": "bar", "name": "La Cervecer\u00eda Deportiva"}}, {"type": "node", "id": 2696236502, "lat": 40.4172783, "lon": -3.7086063, "tags": {"addr:city": "Madrid", "addr:housenumber": "10", "addr:postcode": "28013", "addr:street": "Calle de las Fuentes", "amenity": "restaurant", "cuisine": "regional", "email": "info@laexcentricamadrid.com", "name": "La Exc\u00e9ntrica", "opening_hours": "Mo-Su 10:00-02:00", "phone": "+34 915 59 71 68"}}, {"type": "node", "id": 2696236503, "lat": 40.4173077, "lon": -3.7087212, "tags": {"addr:city": "Madrid", "addr:housenumber": "9", "addr:postcode": "28013", "addr:street": "Calle de las Fuentes", "amenity": "bar", "name": "Sambao"}}, {"type": "node", "id": 2696236504, "lat": 40.4141739, "lon": -3.7085488, "tags": {"addr:city": "Madrid", "addr:housenumber": "3", "addr:postcode": "28005", "addr:street": "Calle G\u00f3mez de Mora", "amenity": "bar", "name": "Plaza Menor"}}, {"type": "node", "id": 2696236505, "lat": 40.4139438, "lon": -3.7085134, "tags": {"addr:city": "Madrid", "addr:housenumber": "11", "addr:postcode": "28005", "addr:street": "Plaza Puerta Cerrada", "amenity": "restaurant", "cuisine": "regional", "name": "Casa Paco", "phone": "+34 913663166/67", "website": "http://www.casapaco1933.com/"}}, {"type": "node", "id": 2696236506, "lat": 40.4155063, "lon": -3.7086445, "tags": {"addr:city": "Madrid", "addr:housenumber": "3", "addr:postcode": "28005", "addr:street": "Cava de San Miguel", "amenity": "restaurant", "contact:facebook": "https://www.facebook.com/Tapas-de-Sichuan-180696759258521/", "contact:phone": "+34 915 04 72 09", "cuisine": "chinese", "name": "Tapas de Sichuan", "old_name": "Terra a Nosa"}}, {"type": "node", "id": 2697521926, "lat": 40.4209125, "lon": -3.7089606, "tags": {"addr:city": "Madrid", "addr:housenumber": "2-4", "addr:postcode": "28013", "addr:street": "Calle de Isabel La Cat\u00f3lica", "amenity": "restaurant", "name": "Sand\u00f3", "phone": "+34 915479911", "website": "https://restaurantesando.es/es"}}, {"type": "node", "id": 2697714038, "lat": 40.4187235, "lon": -3.7083463, "tags": {"addr:city": "Madrid", "addr:housenumber": "7", "addr:postcode": "28013", "addr:street": "Costanilla de los \u00c1ngeles", "amenity": "cafe", "email": "amigos@laciudad-invisible.com", "name": "La Ciudad Invisible", "phone": "+34 91 542 25 40", "shop": "books", "website": "http://www.laciudad-invisible.com/page0/page0.html"}}, {"type": "node", "id": 2699804648, "lat": 40.4204579, "lon": -3.70557, "tags": {"addr:city": "Madrid", "addr:housenumber": "44", "addr:postcode": "28013", "addr:street": "Gran V\u00eda", "amenity": "fast_food", "brand": "Five Guys", "brand:wikidata": "Q1131810", "brand:wikipedia": "en:Five Guys", "cuisine": "burger", "name": "Five Guys", "name:en": "Five Guys", "name:es": "Five Guys", "official_name": "Five Guys Burgers and Fries", "old_name": "Bankia", "opening_hours": "Su-Th 11:00-01:00; Fr,Sa 11:00-02:00", "phone": "+34 915223514", "takeaway": "yes", "toilets:wheelchair": "no", "wheelchair": "yes"}}, {"type": "node", "id": 2699835925, "lat": 40.4206444, "lon": -3.7062067, "tags": {"addr:city": "Madrid", "addr:housenumber": "46", "addr:postcode": "28004", "addr:street": "Gran V\u00eda", "amenity": "cafe", "name": "La Borra del Caf\u00e9", "old_name": "Le Pain Quotidien"}}, {"type": "node", "id": 2701070794, "lat": 40.4204182, "lon": -3.7050667, "tags": {"addr:city": "Madrid", "addr:housenumber": "40", "addr:postcode": "28013", "addr:street": "Gran V\u00eda", "amenity": "fast_food", "cuisine": "frozen_yogurt", "disused:shop": "clothes", "name": "Llaollao", "old_name": "Soloio"}}, {"type": "node", "id": 2701917499, "lat": 40.4149607, "lon": -3.7083443, "tags": {"addr:housenumber": "6", "addr:street": "Calle Cava de San Miguel", "amenity": "restaurant", "name": "Mes\u00f3n La Mazmorra"}}, {"type": "node", "id": 2709875769, "lat": 40.419685, "lon": -3.7014143, "tags": {"amenity": "cafe", "name": "Caf\u00e9 y T\u00e9"}}, {"type": "node", "id": 2723834799, "lat": 40.4143998, "lon": -3.7007134, "tags": {"addr:city": "Madrid", "addr:housenumber": "9", "addr:postcode": "28012", "addr:street": "Plaza de Santa Ana", "amenity": "fast_food", "brand": "Five Guys", "brand:wikidata": "Q1131810", "brand:wikipedia": "en:Five Guys", "cuisine": "burger", "name": "Five Guys", "official_name": "Five Guys Burgers and Fries", "old_name": "Naturbier", "takeaway": "yes", "website": "https://www.fiveguys.es/"}}, {"type": "node", "id": 2723834805, "lat": 40.4143535, "lon": -3.7009567, "tags": {"addr:city": "Madrid", "addr:housenumber": "10", "addr:postcode": "28012", "addr:street": "Plaza del \u00c1ngel", "amenity": "bar", "email": "info@cerveceriasantaana.com", "name": "Cervecer\u00eda Santa Ana", "name:zh": "\u559d\u5564\u9152\u7684\u597d\u5730\u65b9", "phone": "+34 91 429 43 56", "website": "https://cerveceriasantaana.com/", "wikidata": "Q57446757"}}, {"type": "node", "id": 2723834809, "lat": 40.4144215, "lon": -3.7005981, "tags": {"addr:city": "Madrid", "addr:housenumber": "8", "addr:postcode": "28012", "addr:street": "Plaza de Santa Ana", "amenity": "restaurant", "name": "La ChulAna", "old_name": "Tartufo", "old_name_1": "Perico"}}, {"type": "node", "id": 2727060498, "lat": 40.4177579, "lon": -3.7075506, "tags": {"addr:city": "Madrid", "addr:housenumber": "14", "addr:postcode": "28013", "addr:street": "Calle de las Hileras", "old_name": "Discos Yunke", "shop": "convenience"}}, {"type": "node", "id": 2728979086, "lat": 40.4207051, "lon": -3.7091551, "tags": {"addr:city": "Madrid", "addr:housenumber": "12", "addr:postcode": "28013", "addr:street": "Plaza de Santo Domingo", "amenity": "bar", "name": "Bar Mu\u00f1iz"}}, {"type": "node", "id": 2728979092, "lat": 40.4205846, "lon": -3.709399, "tags": {"addr:city": "Madrid", "addr:postcode": "28013", "addr:street": "Calle de la Bola", "amenity": "restaurant", "cuisine": "korean", "name": "A Ri Rang"}}, {"type": "node", "id": 2728979106, "lat": 40.4197232, "lon": -3.7090013, "tags": {"addr:city": "Madrid", "addr:housenumber": "16", "addr:postcode": "28013", "addr:street": "Cuesta de Santo Domingo", "amenity": "bar", "name": "Cervecer\u00eda Monje"}}, {"type": "node", "id": 2728979112, "lat": 40.4196023, "lon": -3.7093431, "tags": {"addr:city": "Madrid", "addr:housenumber": "12", "addr:postcode": "28013", "addr:street": "Cuesta de Santo Domingo", "amenity": "restaurant", "cuisine": "regional", "name": "Del Greco"}}, {"type": "node", "id": 2734140723, "lat": 40.4141373, "lon": -3.7036703}, {"type": "node", "id": 2736312597, "lat": 40.4172104, "lon": -3.7061106, "tags": {"addr:city": "Madrid", "addr:housenumber": "14", "addr:postcode": "28013", "addr:street": "Calle Arenal", "amenity": "cafe", "brand": "Starbucks", "brand:wikidata": "Q37158", "brand:wikipedia": "en:Starbucks", "cuisine": "coffee_shop", "name": "Starbucks", "official_name": "Starbucks Coffee", "takeaway": "yes", "website": "http://www.starbucks.es/"}}, {"type": "node", "id": 2752824256, "lat": 40.4155198, "lon": -3.7017311, "tags": {"addr:housenumber": "19", "addr:street": "Calle de la Cruz", "amenity": "restaurant", "cuisine": "regional", "name": "El Jard\u00edn"}}, {"type": "node", "id": 2753339057, "lat": 40.4137802, "lon": -3.6988741, "tags": {"amenity": "restaurant", "cuisine": "greek", "name": "Dionisos", "phone": "+34 91 420 3595", "smoking": "no", "website": "http://www.dionisos-bcn.com/dionisos/restaurantes.php?restaurante=figueroa"}}, {"type": "node", "id": 2769265443, "lat": 40.4183458, "lon": -3.7073033, "tags": {"addr:city": "Madrid", "addr:housenumber": "2", "addr:postcode": "28013", "addr:street": "Plaza de San Mart\u00edn", "amenity": "restaurant", "cuisine": "mexican", "name": "Cantina Canalla", "old_name": "La Venganza de Malinche", "phone": "+34 915221177", "website": "http://www.cantinacanalla.com/"}}, {"type": "node", "id": 2774958686, "lat": 40.4207653, "lon": -3.7075592, "tags": {"addr:city": "Madrid", "addr:housenumber": "47", "addr:postcode": "28013", "addr:street": "Gran V\u00eda", "amenity": "pub", "name": "+ K Copas"}}, {"type": "node", "id": 2779006951, "lat": 40.4189626, "lon": -3.7015174, "tags": {"addr:city": "Madrid", "addr:housenumber": "3", "addr:postcode": "28013", "addr:street": "Calle de los Jardines", "amenity": "restaurant", "brand": "Foster's Hollywood", "brand:wikidata": "Q5864366", "brand:wikipedia": "en:Foster's Hollywood", "cuisine": "american", "name": "Foster's Hollywood", "phone": "+34 911100415", "website": "https://fostershollywood.es/home.php"}}, {"type": "node", "id": 2779006954, "lat": 40.418962, "lon": -3.7013662, "tags": {"addr:city": "Madrid", "addr:country": "ES", "addr:housenumber": "5", "addr:postcode": "28013", "addr:street": "Calle de los Jardines", "amenity": "restaurant", "cuisine": "mexican", "name": "La Venganza de Malinche", "phone": "+34 915 23 41 64", "website": "http://www.lavenganzademalinche.com/conocenos.html"}}, {"type": "node", "id": 2781347235, "lat": 40.4187637, "lon": -3.7049648, "tags": {"name": "Palazzo", "shop": "ice_cream"}}, {"type": "node", "id": 2781347240, "lat": 40.4173628, "lon": -3.7060503, "tags": {"addr:city": "Madrid", "addr:housenumber": "1", "addr:postcode": "28013", "addr:street": "Plaza de Celenque", "amenity": "restaurant", "cuisine": "regional", "name": "Ca\u00f1as y Tapas", "phone": "+34 91 522 14 15", "website": "http://www.canasytapas.es/index.php?option=com_content&view=article&id=201"}}, {"type": "node", "id": 2781347245, "lat": 40.4150254, "lon": -3.7070014, "tags": {"addr:city": "Madrid", "addr:housenumber": "2", "addr:postcode": "28012", "addr:street": "Plaza Mayor", "amenity": "restaurant", "contact:website": "http://www.encopadebalon.com/es/blog/32_Nuevo-restaurante-En-Copa-de-Bal%C3%B3n-Plaza-Mayo", "name": "En Copa de Bal\u00f3n", "old_name": "Parlamento", "old_name_1": "La Marinera"}}, {"type": "node", "id": 2781347248, "lat": 40.4148251, "lon": -3.7077041, "tags": {"addr:city": "Madrid", "addr:postcode": "28005", "addr:street": "Calle de Toledo", "amenity": "restaurant", "cuisine": "regional", "name": "La Taurina"}}, {"type": "node", "id": 2781347255, "lat": 40.4144821, "lon": -3.7076475, "tags": {"addr:city": "Madrid", "addr:housenumber": "12", "addr:postcode": "28005", "addr:street": "Calle de Toledo", "amenity": "restaurant", "name": "Andarica", "old_name": "La Sure\u00f1a", "old_name_1": "La Mar de Bien"}}, {"type": "node", "id": 2781347259, "lat": 40.4145735, "lon": -3.7074986, "tags": {"addr:city": "Madrid", "addr:housenumber": "11", "addr:postcode": "28005", "addr:street": "Calle de Toledo", "amenity": "restaurant", "contact:website": "http://lacasadelabuelo.es/", "cuisine": "regional", "name": "La Casa del Abuelo", "old_name": "Lal\u00edn La Casa del Pulpo"}}, {"type": "node", "id": 2781347263, "lat": 40.4143944, "lon": -3.7076336, "tags": {"addr:city": "Madrid", "addr:postcode": "28005", "addr:street": "Calle de Toledo", "amenity": "restaurant", "name": "La Ton\u00e1", "old_name": "Tineo"}}, {"type": "node", "id": 2781347265, "lat": 40.4142549, "lon": -3.7073957, "tags": {"addr:city": "Madrid", "addr:housenumber": "19", "addr:postcode": "28005", "addr:street": "Calle de Toledo", "amenity": "fast_food", "brand": "Five Guys", "brand:wikidata": "Q1131810", "brand:wikipedia": "en:Five Guys", "cuisine": "burger", "name": "Five Guys", "official_name": "Five Guys Burgers and Fries", "old_name": "Riazor", "takeaway": "yes", "website": "https://www.fiveguys.es/"}}, {"type": "node", "id": 2781347270, "lat": 40.4140767, "lon": -3.707388, "tags": {"addr:city": "Madrid", "addr:housenumber": "21", "addr:postcode": "28005", "addr:street": "Calle de Toledo", "amenity": "restaurant", "cuisine": "regional", "name": "El Capricho Extreme\u00f1o"}},